[{"name":"Tukabkhao Phuket Local food restaurant","description":"Local Food Phuket","links":["https://www.facebook.com/tukabkhao/"],"keywords":[],"street":"Phangnga Road, Talat Nue","city":"Muang Phuket","state":"Phuket","phone":"+6676608888","email":"kobthai@gmail.com","fax":null,"lat":7.88374977854875,"lon":98.3876860141754},{"name":"Rendez-Vous Coffee Wine Dine","description":null,"links":["https://www.facebook.com/phuketrendezvous/"],"keywords":[],"street":"Taguapa Road","city":"Muang Phuket","state":"Phuket","phone":"+66818941603","email":"rendezvousphuket@gmail.com","fax":null,"lat":7.88237883762058,"lon":98.3884906768799},{"name":"C+ Tecnología","description":"Venta, mantenimiento e intalacion de sistemas CCV, Computadores, Portatiles y tecnologia en general","links":[],"keywords":[],"street":null,"city":null,"state":null,"phone":"3012481578","email":null,"fax":null,"lat":4.619662016198226,"lon":-74.14241552352905},{"name":"ANANDA LIBRERIA","description":"Libros, y herramientas, espirituales, esoterismo, astrología, angeles, chacra, dominio de la mente e iluminación. ","links":["https://tiendabitcoin.com.co/tiendabitcoin/es/busqueda?controller=search&s=libros"],"keywords":[],"street":"CL 53 # 23 Esquina","city":"Bogotá","state":null,"phone":null,"email":"info@tiendabitcoin.com.co","fax":null,"lat":4.64158968520107,"lon":-74.07367050647736},{"name":"Café Calle 52","description":null,"links":[],"keywords":[],"street":"CL 52 # 23 ESQUINA ","city":"Bogotá","state":"COLOMBIA","phone":null,"email":null,"fax":null,"lat":4.640664683888677,"lon":-74.07327890396118},{"name":"DIMAI DOTACIONES","description":"Dotaciones industriales y elementos de protección personal\nRecibimos BITCOIN * Transferencias Bancarias.","links":["http://www.dotacionesindustriales.net"],"keywords":[],"street":"CL 65 # 69 P 30","city":"Bogotá","state":"COLOMBIA","phone":"3110715","email":"info@dotacionesindustriales.net","fax":null,"lat":4.676749527586972,"lon":-74.09639954566956},{"name":"Teléfonos y Accesorios","description":"Celulares, Tablets, cargadores,  Accesorios Cables. Envios a TODO el País ","links":["https://tiendabitcoin.com.co/tiendabitcoin/es/12-telefono-y-accesorios"],"keywords":[],"street":"Gerona del Porvenir","city":"Bogotá","state":"COLOMBIA","phone":"3507896495","email":"info@tiendabitcoin.com.co","fax":null,"lat":4.646236060730802,"lon":-74.16906595230103},{"name":"Patong Tattoo","description":"One of Best Phuket Tattoo Studio in Patong, Thailand. Create a custom unique tattoo designs, Quality Artworks by Expert Artists, Hygienic, Clean and Safe!","links":["http://www.patongtattoo.com","https://www.facebook.com/patongtattoo"],"keywords":[],"street":"Rat-U-thit Song Roi Pee Road","city":"Patong beach, Ban Patong","state":"Phuket","phone":"+66936640535","email":"info@patongtattoo.com","fax":null,"lat":7.90049827129666,"lon":98.299355506897},{"name":"鉄板Dining 月や","description":null,"links":["http:// https://tabelog.com/hyogo/A2801/A280102/28048196/"],"keywords":[],"street":"chuouku shimoyamate","city":"kobe","state":"hyogo","phone":"078-391-5710","email":null,"fax":null,"lat":34.6919093982137,"lon":135.186660289764},{"name":"Pizzeria Hut 1","description":"The best Pizza in Patong","links":["http://www.phuketpizzeriahut1.com","https://www.facebook.com/Pizzeriahut1/"],"keywords":[],"street":"Sansabay Road","city":"Patong beach, Ban Patong","state":"Phuket","phone":"+6676344237","email":null,"fax":null,"lat":7.89304867653595,"lon":98.2987117767334},{"name":"piece de Lapin","description":null,"links":[],"keywords":[],"street":null,"city":null,"state":null,"phone":null,"email":null,"fax":null,"lat":34.7411702183857,"lon":135.146310933642},{"name":"路地裏の隠れ家bar ﾌﾟﾁｱｯﾌﾟﾙ","description":null,"links":[],"keywords":[],"street":null,"city":null,"state":null,"phone":null,"email":null,"fax":null,"lat":34.6801715457049,"lon":135.167375206947},{"name":"MIELFRUTTA","description":"MiniMarket ","links":["http://WWW.MIELFRUTTA.COM","https://www.facebook.com/Mielfrutta-190921187599381"],"keywords":[],"street":"Via Garibaldi, 52","city":"Villanova di Guidonia","state":"Roma","phone":"0774326230","email":"mielfrutta@gmail.com","fax":null,"lat":41.9695058824924,"lon":12.7613550424576},{"name":"Mil y un Ideas","description":"Una organización sin fines de lucro en Venezuela que busca hacer cambios en el ámbito social creando propuestas creativas para la solución de problemas de la vida cotidiana.","links":["https://www.instagram.com/monbitcoin/"],"keywords":[],"street":"Sabana Grande, Caracas, Distrito Capital","city":"CARACAS","state":"DISTRITO FEDERAL","phone":"+584242269741","email":null,"fax":null,"lat":10.4950171724947,"lon":-66.8759787082672},{"name":"Electronica plaza 1 C.A","description":"Centro de Servicio Técnico Autorizado LG Linea Blanca y Linea Marron, Venta de Repuestos Originales.","links":["https://www.instagram.com/monbitcoin/"],"keywords":[],"street":"Av. Solano Edf. 16, Sotano 2","city":"CARACAS","state":"DISTRITO FEDERAL","phone":"+582127619572","email":null,"fax":null,"lat":10.4935613586716,"lon":-66.8740153312683},{"name":"Fundación Sonrisas Creativas","description":"Brindamos Atención Médica-Odontológica a Personas con Condiciones Especiales","links":["https://www.instagram.com/monbitcoin/"],"keywords":[],"street":"Chacaíto, Bulevar de Sabana Grande,","city":"CARACAS","state":"DISTRITO FEDERAL","phone":"+584242356498","email":null,"fax":null,"lat":10.4917046586372,"lon":-66.8675512075424},{"name":"Bitcointravel","description":"Bitcointravel.mobi es una Agencia de Viajes IATA en donde puedes encontrar tu pasaje aéreos internacionales en criptomonedas.\nTeléfono Secundario","links":["https://www.instagram.com/monbitcoin/"],"keywords":[],"street":"Avenida Venezuela con Avenida Venezuela, Caracas 1060","city":"CARACAS","state":"VENEZUELA","phone":"+582129516845","email":null,"fax":null,"lat":10.4891622274474,"lon":-66.8664461374283},{"name":"Chefcito Venezolano","description":"Servicio Delivery, Elaboración de panes, tortas, Pasapalos y cócteles y otras comidas para su deleite.","links":["https://www.instagram.com/monbitcoin/"],"keywords":[],"street":"Calle Paramacay, Caracas 1073","city":"CARACAS","state":"DISTRITO FEDERAL","phone":"+584168324751","email":null,"fax":null,"lat":10.4701302537643,"lon":-66.8057692050934},{"name":"UnGeek","description":"Nos dedicamos a la venta al por mayor de accesorios para equipos móviles.\n","links":["https://www.instagram.com/monbitcoin/"],"keywords":[],"street":null,"city":"CARACAS","state":"DISTRITO FEDERAL","phone":"+584145376628","email":null,"fax":null,"lat":10.4786863467008,"lon":-66.7954909801483},{"name":"Cerveceria y Alimentos de Venezuela CAVCA","description":"CAVCA de Venezuela es una microempresa que tiene como fin, la producción de cerveza artesanal de diversos tipos, utilizando para ello los mejores ingredientes, altos estándares de calidad y la tradición de los artesanos, para llevarle a los venezolanos una cerveza elaborada para paladares finos y exigentes. ","links":["https://www.instagram.com/monbitcoin/"],"keywords":[],"street":"Filas de Mariches, Zona Industrial,","city":"CARACAS","state":"DISTRITO FEDERAL","phone":"+584125652397","email":null,"fax":null,"lat":10.4746984560801,"lon":-66.7763936519623},{"name":"Infinitus car & boat","description":"Autolavado pulitura y tapiceria.","links":["https://www.instagram.com/monbitcoin/"],"keywords":[],"street":null,"city":"CARACAS","state":"DISTRITO FEDERAL","phone":"+584128261906","email":null,"fax":null,"lat":10.4902910272761,"lon":-66.8059730529785},{"name":"SOI - Materiales","description":"Somos una empresa especializada en la venta de materiales eléctricos y mucho mas, ubicada en caracas.\n","links":["https://www.instagram.com/monbitcoin/"],"keywords":[],"street":"La urbina, calle 7, Edif. Los Robles, PB, Local de SOI Materiales Eléctricos","city":"CARACAS","state":"DISTRITO FEDERAL","phone":"+582122417634","email":null,"fax":null,"lat":10.4925486145797,"lon":-66.8068206310272},{"name":"RONALD ARTX","description":"Ronald Alberto Andara Arteaga, nacido en un Barrio popular de la ciudad de Caracas en Venezuela, es conocido como Ronald Artx, un pintor y diseñador en el mundo del surf, Inicia su trayectoria estampando su arte sobre tablas de surf sus soportes  ","links":["https://www.instagram.com/monbitcoin/"],"keywords":[],"street":"Horizonte, El marquez, Caracas Venezuela","city":"CARACAS","state":"DISTRITO FEDERAL","phone":"+584149295656","email":null,"fax":null,"lat":10.497306373125,"lon":-66.8155860900879},{"name":"Proyectos ArqQuint","description":"Elaboración de proyectos digitales de Arquitectura para la construcción de Viviendas, Educacionales e Industriales.","links":["https://www.instagram.com/monbitcoin/"],"keywords":[],"street":"Avenida Rómulo Gallegos, Centro Aloa, Caracas,","city":"CARACAS","state":"DISTRITO FEDERAL","phone":"+584140145859","email":null,"fax":null,"lat":10.4932765247309,"lon":-66.8223881721497},{"name":"Gourmet Planet","description":"Restaurante, Ventas de bebidas y postres, Eventos y servicio para comida de empresas.","links":["https://www.instagram.com/monbitcoin/"],"keywords":[],"street":"boleita norte centro empresarial ciudad center Caracas 1071","city":"CARACAS","state":"DISTRITO FEDERAL","phone":"+584143369367","email":null,"fax":null,"lat":10.4968949512193,"lon":-66.8230640888214},{"name":"Design In Venezuela","description":"Si eres apasionado por el diseño en todas sus variantes y quieres aprender más sobre esta fascinante profesión, has llegado al lugar correcto.","links":["https://www.instagram.com/monbitcoin/"],"keywords":[],"street":"Los Dos Caminos, Caracas, Miranda","city":"CARACAS","state":"DISTRITO CAPITAL","phone":"+584241528823","email":null,"fax":null,"lat":10.4979182303312,"lon":-66.833428144455},{"name":"Chocolate Digatti","description":"Chocolatería artesanal para toda ocasión, Elaborada desde el tratamiento de la semilla del cacao.","links":["https://www.instagram.com/monbitcoin/"],"keywords":[],"street":"Av. Principal de Los Chorros","city":"CARACAS","state":"DISTRITO FEDERAL","phone":"+584143353461","email":null,"fax":null,"lat":10.5048173639824,"lon":-66.8227958679199},{"name":"Todo Vapor Store","description":"Vape store, lo mejor del camping en un solo lugar.\neCigs, Mods, Kits, Liquids, accesorios y más","links":["https://www.instagram.com/monbitcoin/"],"keywords":[],"street":"Los Cortijos, Caracas","city":"CARACAS","state":"DISTRITO FEDERAL","phone":"+584142001869","email":null,"fax":null,"lat":10.4900694874476,"lon":-66.8271088600159},{"name":"Wieners","description":"Los más deliciosos y suculentos perros calientes, ideal para una fiesta o reunión","links":["https://www.instagram.com/monbitcoin/"],"keywords":[],"street":"La California, Caracas, Miranda","city":"CARACAS","state":"DISTRITO FEDERAL","phone":"+584141083618","email":null,"fax":null,"lat":10.4784858983974,"lon":-66.8214440345764},{"name":"Fundación Vida","description":"ONG sin fines de lucro que brinda apoyo en exámenes de laboratorio de alta especificad para pacientes con cáncer y VIH","links":["https://www.instagram.com/monbitcoin/"],"keywords":[],"street":"Los Ruices, Caracas, Miranda","city":"CARACAS","state":"DISTRITO FEDERAL","phone":"+584241639992","email":null,"fax":null,"lat":10.4828535320482,"lon":-66.8312501907349},{"name":"Tu Paleta Gourmet","description":"Somos una empresa dedicada a la fabricacion, distribuicion y venta de helados y tortas artesanales gourmet, en paletas 100% naturales, sin aditivos ni  conservantes y para todos los gustos","links":["https://www.instagram.com/monbitcoin/"],"keywords":[],"street":"caracas, baruta","city":"CARACAS","state":"DISTRITO FEDERAL","phone":"+584129894012","email":null,"fax":null,"lat":10.4683578153408,"lon":-66.8364000320435},{"name":"Chichas y Postres La Cumbre","description":"Postres Artesanales, Elaborados con productos de excelente calidad y con el mejor cacao del mundo.","links":["https://www.instagram.com/monbitcoin/"],"keywords":[],"street":"Av. Principal Lomas del Sol (Sur), Caracas 1083","city":"CARACAS","state":"DISTRITO FEDERAL","phone":"+584166332280","email":null,"fax":null,"lat":10.4509071964507,"lon":-66.8255853652954},{"name":"Tu Bodegoncito","description":"TuBodegoncito es un pequeño rincon en el Hatillo donde encontraras todos esos productos nacionales e importados que te hacen soñar.","links":["https://www.instagram.com/monbitcoin/"],"keywords":[],"street":"Calle Miranda, Caracas 1083,","city":"CARACAS","state":"DISTRITO FEDERAL","phone":"+582129615794","email":null,"fax":null,"lat":10.425842636927,"lon":-66.8264758586884},{"name":"Colegio Kavak","description":"Educación inicial, básica y bachillerato.","links":["https://www.instagram.com/monbitcoin/"],"keywords":[],"street":"Av ppal Oripoto, Qta Jade, El Hatillo","city":"CARACAS","state":"DISTRITO FEDERAL","phone":"+584123917251","email":null,"fax":null,"lat":10.4161560234763,"lon":-66.8362820148468},{"name":"Andre Tancredi Fotos","description":"El timeline de tu vida y tus emprendimientos en imágenes.\n\nSesiones fotográficas para los momentos más importantes de tu vida: embarazadas, niños, familias y más!.","links":["https://www.instagram.com/monbitcoin/"],"keywords":[],"street":"La Boyera, Caracas, Miranda","city":"CARACAS","state":"DISTRITO FEDERAL","phone":"+584120980735","email":null,"fax":null,"lat":10.4252570168912,"lon":-66.8423116207123},{"name":"iPhone Digital","description":"Servicio Técnico iPhone A DOMICILIO. ","links":["https://www.instagram.com/monbitcoin/"],"keywords":[],"street":"Centro Parque Cristal,","city":"CARACAS","state":"DISTRITO CAPITAL","phone":"+584126271717","email":null,"fax":null,"lat":10.4970953876007,"lon":-66.8433094024658},{"name":"YEM Designs","description":"Artista Plastico. Piezas unicas decorativas y/o utilitarias realizadas totalmente a mano en la ancestral tecnica del Repujado Artistico y Mixed Media.","links":["https://www.instagram.com/monbitcoin/"],"keywords":[],"street":null,"city":"CARACAS","state":"DISTRITO FEDERAL","phone":null,"email":null,"fax":null,"lat":10.4971375847171,"lon":-66.8489098548889},{"name":"Mix Bar","description":"Ofrecemos el mejor servicio de cocteleria /Barra Móvil / especialidad **Mojitos**","links":["https://www.instagram.com/monbitcoin/"],"keywords":[],"street":"CHACAO","city":"CARACAS","state":"DISTRITO FEDERAL","phone":"+584126245367","email":null,"fax":null,"lat":10.497897131827,"lon":-66.8498003482819},{"name":"Entorno Corporal","description":"Servicios de bienestar integral para personas y para organizaciones que cuidan a las personas.","links":["https://www.instagram.com/monbitcoin/"],"keywords":[],"street":"avenida 3 Los Palos Grandes Caracas","city":"CARACAS","state":"DISTRITO CAPITAL","phone":"+584248413922","email":null,"fax":null,"lat":10.5031400658414,"lon":-66.8438029289246},{"name":"KETIARTS","description":"KetiArts es una marca de diseño venezolano que fusiona ARTE, MODA & HOME DESIGN a través de diversas piezas textiles y complementos que usamos en la cotidianidad pero con un toque que lo hace diferente y único ya que cada diseño es pintado a mano, ","links":["https://www.instagram.com/monbitcoin/"],"keywords":[],"street":"caracas, los palos grandes","city":"CARACAS","state":"DISTRITO FEDERAL","phone":"+584141143014","email":null,"fax":null,"lat":10.5063364185929,"lon":-66.8434703350067},{"name":"Fundación Talento Al Día De María","description":"Apoya, impulsa y da seguimiento a niños y adolescentes con talento en áreas deportivas, Culturales y artes, Que no tienen posibilidades económicas para llevar a cabo su sueño.","links":["https://www.instagram.com/monbitcoin/"],"keywords":[],"street":null,"city":"CARACAS","state":"DISTRITO CAPITAL","phone":"+584143142836","email":null,"fax":null,"lat":10.5071908835291,"lon":-66.8505191802979},{"name":"Distribuidora Valentin CA","description":"Todo lo relacionado en ventas de material de oficina, Consumibles, pop, Papelería, Papel Higiénico, Equipos de computación materiales eléctricos.","links":["https://www.instagram.com/monbitcoin/"],"keywords":[],"street":"Chacao, Avenida Francisco de Miranda, ","city":"CARACAS","state":"DISTRITO FEDERAL","phone":"+584241683030","email":null,"fax":null,"lat":10.4925169662734,"lon":-66.8550896644592},{"name":"AIC Soluciones C.A.","description":"Empresa dedicada a la construcción de productos de software de calidad a la medida para la industria de manufactura y de servicios financieros.\n","links":["https://www.instagram.com/monbitcoin/"],"keywords":[],"street":"Avenida Francisco de Miranda, Centro Profesional Miranda, Piso 7, Oficina 7C.","city":"CARACAS","state":"DISTRITO FEDERAL","phone":"+584241644423","email":null,"fax":null,"lat":10.4920633401941,"lon":-66.8568921089172},{"name":"Fundacion Orbeex","description":"Fundación que promueve el talento nacional, ya sea en áreas de deporte, cultura y arte.","links":["https://www.instagram.com/monbitcoin/"],"keywords":[],"street":"Campo Alegre, Caracas, Miranda","city":"CARACAS","state":"DISTRITO FEDERAL","phone":"+584141734330","email":null,"fax":null,"lat":10.4943631120595,"lon":-66.8625247478485},{"name":"Aircraft Solutions c.a.","description":"Consultoría en Aviación Corporativa.\n","links":["https://www.instagram.com/monbitcoin/"],"keywords":[],"street":"El Rosal, Caracas","city":"CARACAS","state":"DISTRITO FEDERAL","phone":"+582129534784","email":null,"fax":null,"lat":10.489056731926,"lon":-66.864767074585},{"name":"Grupo chaska","description":"Tienda Online.\n\nDiseños originales de accesorios para Damas y Niñas, ideales para regalar, Elaborados 100% a mano.","links":["https://www.instagram.com/monbitcoin/"],"keywords":[],"street":"Avenida Guaicaipuro, Caracas, Distrito Capital","city":"CARACAS","state":"DISTRITO FEDERAL","phone":null,"email":null,"fax":null,"lat":10.4888035425277,"lon":-66.8668806552887},{"name":"Kiosco El Rosal","description":"Es más que un kiosco, es un espacio para ti, un sitio de encuentro para compartir un rico café, disfrutar de confiterías nacionales e importadas y descubrir los sabrosos emprendimientos vecinales y nacionales.","links":["https://www.instagram.com/monbitcoin/"],"keywords":[],"street":"Av Carabobo El Rosal Chacao Caracas","city":"CARACAS","state":"DISTRITO FEDERAL","phone":"+584143218598","email":null,"fax":null,"lat":10.4879912251432,"lon":-66.8599605560303},{"name":"Mikoin","description":"Minería, Consultoría e Inversion de Criptomonedas.\n","links":["https://www.instagram.com/monbitcoin/"],"keywords":[],"street":"Av la estancia, CCCT Torre D piso 2. Chuao, Caracas","city":"CARACAS","state":"DISTRITO FEDERAL","phone":"+584129540001","email":null,"fax":null,"lat":10.4857019555895,"lon":-66.8544995784759},{"name":"Distribuidora Credimport C.A","description":"Representamos a un grupo de empresas dedicadas a la comercialización de: Electrodomésticos, Linea Blanca, Telefonía, Tecnología y Hogar. ","links":["https://www.instagram.com/monbitcoin/"],"keywords":[],"street":"Av. Araure, Edificio 147, Local PB, Chuao (El Cafetal) CARACAS","city":"CARACAS","state":"DISTRITO FEDERAL","phone":"+584242937333","email":null,"fax":null,"lat":10.4823154935481,"lon":-66.8455731868744},{"name":"Acamparavila","description":"¡Bienvenidos! Guías ecologistas de montaña. Rutas para caminar o acampar en el Ávila.","links":["https://www.instagram.com/monbitcoin/"],"keywords":[],"street":"Chuao, avenida araure, edificio Avila","city":"CARACAS","state":"DISTRITO FEDERAL","phone":"+584264188137","email":null,"fax":null,"lat":10.4816825058807,"lon":-66.8395113945007},{"name":"Pablo Publicidad","description":"Alquiler de Vallas Publicitarias, Impresiones Digitales de cualquier tamaño y formáto, Gigantografía, Pendones, Avisos, Dummies, Backing.","links":["https://www.instagram.com/monbitcoin/"],"keywords":[],"street":"Avenida Venezuela, Caracas 1050, ","city":"CARACAS","state":"DISTRITO FEDERAL","phone":"+584241429025","email":null,"fax":null,"lat":10.4889195876943,"lon":-66.8754100799561},{"name":"On Love Moda","description":"Envíos a nivel nacional ,","links":["https://www.instagram.com/monbitcoin/"],"keywords":[],"street":"Caracas - Altos Mirandinos","city":"CARACAS","state":"DISTRITO FEDERAL","phone":"+584123789180","email":null,"fax":null,"lat":10.4883499110044,"lon":-66.876300573349},{"name":"InfoComputer C.A","description":"Servicio de Hosting, VPS, Internet y Medios de Pagos.","links":["https://www.instagram.com/monbitcoin/"],"keywords":[],"street":"Edf Plaza Las Mercedes Caracas","city":"CARACAS","state":"DISTRITO FEDERAL","phone":"+584123138537","email":null,"fax":null,"lat":10.4805747743495,"lon":-66.8577396869659},{"name":"Zona Técnica GSM","description":"Servicio a domicilio en telefonía celular alta gama. Reparaciones de hardware: pantallas, baterías, flex de carga, pin de carga, speaker, auricular, microfonos, carcasas, táctiles, etc.","links":["https://www.instagram.com/monbitcoin/"],"keywords":[],"street":"Caracas Las Mercedes","city":"CARACAS","state":"DISTRITO FEDERAL","phone":"+584143101981","email":null,"fax":null,"lat":10.4815770078103,"lon":-66.8601965904236},{"name":"Mariauxilazos","description":"ermosos lazos, cintillos y accesorios varios para niñas, bebes, hechos en cintas y telas, ideales para cualquier ocasión.","links":["https://www.instagram.com/monbitcoin/"],"keywords":[],"street":"Colinas de Bello Monte, Caracas, Miranda","city":"CARACAS","state":"DISTRITO FEDERAL","phone":"+584142147552","email":null,"fax":null,"lat":10.4833071716258,"lon":-66.876128911972},{"name":"Tormes","description":"Somos Mayoristas de Higiénicos Institucionales, Artículos de Limpieza Artículos de Oficinas, Toda la Lineas Escolar","links":["https://www.instagram.com/monbitcoin/"],"keywords":[],"street":"Avenida Caroní Caracas Venezuela","city":"CARACAS","state":"DISTRITO FEDERAL","phone":"+584166053407","email":null,"fax":null,"lat":10.4826636362138,"lon":-66.878467798233},{"name":"Suministros RALURI 362 c.a","description":"Suministro de materiales para industrias y ferretería, componentes eléctricos, luminarias, piscinas, filtros, hidroneumáticos.","links":["https://www.instagram.com/monbitcoin/"],"keywords":[],"street":"Calle Caurimare, Colinas de Bello, Caracas","city":"CARACAS","state":"DISTRITO FEDERAL","phone":"+582127540216","email":null,"fax":null,"lat":10.4784225989062,"lon":-66.8822872638702},{"name":"Conaprev","description":"Colegio nacional de profesionales en recreación de Venezuela.","links":["https://www.instagram.com/monbitcoin/"],"keywords":[],"street":"Santa Mónica, Caracas,","city":"CARACAS","state":"DISTRITO FEDERAL","phone":"+584146859281","email":null,"fax":null,"lat":10.4763020584784,"lon":-66.8931019306183},{"name":"Fundación Camerata de Caracas","description":"Institución sin fines de lucro cuya misión es llevar a todos los grupos que la conforman a un alto grado de excelencia artística,","links":["https://www.instagram.com/monbitcoin/"],"keywords":[],"street":"Avenida Zuloaga, Caracas, Distrito Capital","city":"CARACAS","state":"DISTRITO FEDERAL","phone":"+584129112120","email":null,"fax":null,"lat":10.4785702976989,"lon":-66.9028973579407},{"name":"Hazte el Mago","description":"Hazte el mago es un show de magia único donde el espectador se convierte en protagonista.","links":["https://www.instagram.com/monbitcoin/"],"keywords":[],"street":null,"city":"CARACAS","state":"DISTRITO FEDERAL","phone":"+584142393263","email":null,"fax":null,"lat":10.480543124819,"lon":-66.9036269187927},{"name":"Fundación Manos Por La Salud","description":"Equipo multidisciplinario de profesionales y estudiantes de la UCV unidos en aras de brindar atención primaria a las comunidades más vulnerables de nuestro país.","links":["http://www.monbitcoinmarket.web.ve"],"keywords":[],"street":"UCV, Caracas, Distrito Capital","city":"CARACAS","state":"DISTRITO FEDERAL","phone":"+584249459205","email":null,"fax":null,"lat":10.48940486701037,"lon":-66.89666390419006},{"name":"Ferreauto los Totumos","description":"Venta de todo tipo de Repuestos, Envíos nacionales, Somos tienda física.","links":["https://www.instagram.com/monbitcoin/"],"keywords":[],"street":"Transversal 6, Caracas 1040, ","city":"CARACAS","state":"DISTRITO FEDERAL","phone":"+584242704247","email":null,"fax":null,"lat":10.4774942048832,"lon":-66.9120383262634},{"name":"Free Charging HASHTAG","description":"somos los pioneros en Venezuela de este innovador servicio, se trata de una estación de carga para teléfonos celulares o dispositivos móviles ","links":["https://www.instagram.com/monbitcoin/"],"keywords":[],"street":"El Valle, Caracas","city":"CARACAS","state":"DISTRITO FEDERAL","phone":"+582126149195","email":null,"fax":null,"lat":10.4580816929975,"lon":-66.9172686338425},{"name":"TRAKI","description":"TIENDA POR DEPARTAMENTO","links":["https://www.instagram.com/monbitcoin/"],"keywords":[],"street":"AV ALBERTO A. TORREALBA","city":"BARINAS","state":"BARINAS","phone":null,"email":null,"fax":null,"lat":8.61537074681512,"lon":-70.2618652582169},{"name":"Kenny Rogers Roasters Laguna","description":"Come join us ... food & drinks from Kenny Rogers Roasters @ Boat Lagoon's","links":["http://www.krrthailand.com/","https://www.facebook.com/krrthailand/"],"keywords":[],"street":"Lagoon Road","city":"Cherngtalay","state":"Phuket","phone":"+66 (0) 76-618-771","email":"info@krrthailand.com","fax":null,"lat":7.995540495883203,"lon":98.3049988746643},{"name":"Bankok healthcare","description":"Drug Store","links":["https://bangkok-healthcare.business.site/"],"keywords":[],"street":"Lagoon Road","city":"Cherngtalay","state":"Phuket","phone":"+66 88 760 0052","email":null,"fax":null,"lat":7.994679907239472,"lon":98.30541729927063},{"name":"Fufa Restaurant","description":"Local Food","links":["https://fufa-restaurant.business.sit"],"keywords":[],"street":"Lagoon Road","city":"Cherngtalay","state":"Phuket","phone":"+66 89-875-7134","email":null,"fax":null,"lat":7.995136763165294,"lon":98.30525636672974},{"name":"Ella Bache Perth City (Beauty Salon, Skincare, Therapy, Massage, Gifts)","description":"Premium Beauty and Skincare Products. Microderm abrassion. Facial. IPL Hair Removal. Spray Tan. Waxing (bikini, brazillian, arm leg). Eyebrow wax and Tint. Lash Lifts. Email for more services and products offered. Please email your orders, wallet address will be sent to you for processing. We also deliver products (by AusPost).","links":["http://ellabacheperth.com.au/","https://www.facebook.com/EllaBachePerthWA"],"keywords":[],"street":"Murray Street","city":"Perth","state":"Western Australia","phone":null,"email":null,"fax":null,"lat":-31.9533866254271,"lon":115.858721137047},{"name":"넥서스마켓|neXusmarket","description":null,"links":["http://nexusmarket.kr"],"keywords":[],"street":null,"city":"Ulsan","state":null,"phone":"+82 10 3370 8985","email":"nexusmarket7@gmail.com","fax":null,"lat":35.544098515982476,"lon":129.42527234275076},{"name":"BUKIT CUPPA","description":"Fresh coffee & home-made cakes. Start your day, or wind it down, come in let us pamper you.","links":["https://coffeebukitcuppa.business.site/","https://www.facebook.com/bukitcuppa/"],"keywords":[],"street":"Chao Fah Tawan Tok,","city":"Mueang","state":"Phuket","phone":"+66816090288","email":null,"fax":null,"lat":7.87642209969939,"lon":98.36341738700867},{"name":"Buying/Selling Bitcoins","description":"Crypto Merchant Service Office","links":["https://cryptobeach.in.th/en"],"keywords":[],"street":"Chao Fah Tawan Tok,","city":"Muang Phuket","state":"Phuket","phone":"+66818922876","email":"bebe@cryptobeach.in.th","fax":null,"lat":7.87972727619556,"lon":98.36358904838562},{"name":"Bitcoin Souvenir","description":"Venta de souvenir asociados a la cultura bitcoin","links":["http://bitcoinsouvenir.cl"],"keywords":[],"street":"Augusto Villanueva 269","city":"Santiago","state":null,"phone":"+56 9 66047684","email":"bitcoinsouvenir@gmail.com","fax":null,"lat":-33.4520234587086,"lon":-70.5879521369934},{"name":"Libros Móviles","description":"Edición, publicación e impresión de libros físicos y digitales","links":["https://librosmoviles.com/","https://www.facebook.com/ebookslibrosmoviles"],"keywords":[],"street":"Augusto Villanueva 269","city":"Santiago","state":null,"phone":"+56 9 66047684","email":"contacto@librosmoviles.com","fax":null,"lat":-33.45192499127693,"lon":-70.58787703514099},{"name":"Xtracción Café","description":"Si te apetece un buen Café, Frappés refrescos, jugos , kekes, empanadas y más, aceptamos Bitcoin","links":["https://www.facebook.com/Xtraccioncafe/"],"keywords":[],"street":"Avenida José Leal 609, Lince","city":"lima","state":"peru","phone":"+51954734390","email":null,"fax":null,"lat":-12.0854064513311,"lon":-77.0399951934814},{"name":"Charlato","description":"First icecream store to accept Bitcoin in NZ!","links":["https://www.facebook.com/charlatonz/"],"keywords":[],"street":"Marriner Street","city":"Christchurch","state":"Canterbury","phone":"0278211477","email":"charliekavanaghnz@gmail.com","fax":null,"lat":-43.5682380245995,"lon":172.758995890617},{"name":"Tabaccheria n°3 di Boscolo Enrico Bello Sacchi","description":"Tabaccheria","links":[],"keywords":[],"street":"Corso del popolo","city":"Chioggia","state":"Venezia","phone":null,"email":"boscoloenrico1@gmail.com","fax":null,"lat":45.22195551192824,"lon":12.279748320579527},{"name":"Юрий","description":"Стройматериалы","links":[],"keywords":[],"street":"улица Чайковского","city":"Клин","state":null,"phone":"89685912299","email":"tel9685912299@gmail.com","fax":null,"lat":56.3351445951948,"lon":36.73600673675537},{"name":"Ольга","description":"Двухэтажный кирпичный дом 200мкв","links":[],"keywords":[],"street":"улица Крупской","city":"городское поселение Котово","state":null,"phone":"89032901545","email":null,"fax":null,"lat":50.30462544562392,"lon":44.82525313316728},{"name":"Perro Grieggo","description":"Sitio de comida, botanas y bebidas, estamos ubicados en la bella area de Playa Norte.","links":["https://perro-grieggo.negocio.site"],"keywords":[],"street":"Calle calamar esquina con calle 74","city":"carmen","state":"campeche","phone":null,"email":null,"fax":null,"lat":18.6635564240478,"lon":-91.8175184726715},{"name":"Ольга","description":"Трехэтажный дом 185м кв","links":[],"keywords":[],"street":null,"city":"Солнечная Поляна","state":null,"phone":"89032901545","email":null,"fax":null,"lat":53.43275930992381,"lon":49.93302627333832},{"name":"Alcon Market","description":"Tienda de abarrotes, botanas, bebidas y productos PAR.","links":["https://alcon-market.business.site/"],"keywords":[],"street":"calle calamar esquina con calle 74","city":"carmen","state":"campeche","phone":null,"email":"alconmarket@gmail.com","fax":null,"lat":18.6636377412255,"lon":-91.8175506591797},{"name":"Iperga srls","description":"Web Agency","links":["http://www.iperga.com"],"keywords":[],"street":"Via Distrettuale","city":"Santa Lucia di Piave","state":"Treviso","phone":null,"email":"info@iperga.com","fax":null,"lat":45.8550110692264,"lon":12.3071819543839},{"name":"zakucheto.com","description":"Online zooshop","links":["http://www.zakucheto.com","https://www.facebook.com/zakucheto"],"keywords":[],"street":null,"city":"Sofia","state":null,"phone":null,"email":"info@zakucheto.com","fax":null,"lat":42.68366970292853,"lon":23.29830050468445},{"name":"AVATAR","description":null,"links":[],"keywords":[],"street":"Moreno Norte 0016","city":"San Carlos Centro","state":"Santa Fe","phone":"+5493424485797","email":"desarrollatupyme@yahoo.com.ar","fax":null,"lat":-31.57912039385816,"lon":-61.11351013183594},{"name":"AVATAR","description":null,"links":[],"keywords":[],"street":"Moreno Norte 0016","city":"San Carlos Centro","state":"Santa Fe","phone":"+5493424485797","email":"desarrollatupyme@yahoo.com.ar","fax":null,"lat":-31.718530180091097,"lon":-61.08697235584258},{"name":"Rey León","description":"Peluquería masculina - Perfumes Sweet Sensation","links":[],"keywords":[],"street":"Salta 328","city":"Entre Ríos","state":"Argentina","phone":"+5493435099309","email":"lhbressan@gmail.com","fax":null,"lat":-31.86639636224864,"lon":-60.005950927734375},{"name":"ColDrone SAS","description":"Tienda de productos y servicios de tecnologia Drone.","links":["http://www.coldrone.com.co","https://www.facebook.com/coldrone","https://www.twitter.com/coldrone"],"keywords":[],"street":"Cra 16 C # 166 -76","city":"Bogota","state":"Cundinamarca","phone":"3125316040","email":"contacto@coldrone.com.co","fax":null,"lat":4.74630476951539,"lon":-74.0389949083328},{"name":"OC VIVO!","description":"Obousměrný bankomat v -1 patře","links":["http://magitos.com"],"keywords":[],"street":"Švehlova","city":"Praha 10","state":"CZ","phone":"777614540","email":"info@magitos.com","fax":null,"lat":50.05315036372572,"lon":14.517542123794556},{"name":"Brainwire.gr","description":"Κατασκευή Ιστοσελίδων - Εφαρμογές Πληροφορικής - Εμπόριο Επισκευή Υπολογιστών","links":["https://brainwire.gr","https://www.facebook.com/Brainwire.gr","https://www.twitter.com/Brainwire_gr"],"keywords":[],"street":"Eirinis","city":"Mirsini","state":"Ileias","phone":"00306972958388","email":"info@brainwire.gr","fax":null,"lat":37.92191666033699,"lon":21.237296462059017},{"name":"America's Mattress","description":"In store only.  Please ask for Frank.  ","links":["http://www.americasmattress.com/asheville","https://www.facebook.com/AmericasMattressAVL/"],"keywords":[],"street":"90 S Tunnel Road","city":"Asheville","state":"North Carolina","phone":"828-298-1170","email":"frankjp@matttress.shop","fax":null,"lat":35.57837813919647,"lon":-82.52018809318541},{"name":"Next Lounge","description":"Liquor store and bar","links":["http://www.nexthospitality.co.ke"],"keywords":[],"street":"Mai Mahiu ROad","city":"Nairobi","state":"Nairobi","phone":"+254720700164","email":null,"fax":null,"lat":-1.31389902448937,"lon":36.8180501461029},{"name":"COCTELOS","description":"ervicios de festejo desde pastelería, Decoración hasta coctelera en Caracas.","links":["https://www.instagram.com/monbitcoin/"],"keywords":[],"street":"La California Norte, Caracas, Miranda","city":"CARACAS","state":"DISTRITO FEDERAL","phone":"+584145316668","email":null,"fax":null,"lat":10.4813238122948,"lon":-66.8218302726746},{"name":"westcity.gr","description":"local news website","links":["http://westcity.gr","https://www.facebook.com/westcity.gr","https://www.twitter.com/westcity_gr"],"keywords":[],"street":"agiou Ioannou 96","city":"kato achaia","state":"Achaia","phone":"6972240600","email":"velios80@gmail.com","fax":null,"lat":38.1438725308096,"lon":21.554510593414307},{"name":"Regalo","description":"Man & Woman gifts , Gift shop , Luxury Bags ang Gifts","links":["https://www.facebook.com/regalo.com.gr"],"keywords":[],"street":"agiou Ioannou 96","city":"kato achaia","state":"Achaia","phone":"6972240600","email":"velios80@gmail.com","fax":null,"lat":38.14386831189687,"lon":21.55442476272583},{"name":"scort masculino","description":null,"links":["https://www.facebook.com/Acompa%C3%B1ante-La-Plata-570856359953741/?view_public_for=570856359953741"],"keywords":[],"street":null,"city":null,"state":null,"phone":"01138782391","email":"javierlatorres5569@gmail.com","fax":null,"lat":-34.911959530081496,"lon":-57.940113544464104},{"name":"Siobhan Dowd Voiceover","description":"British Female Voiceover.  Self Recording or Studio based services.","links":["http://www.siobhandowd.com","https://www.twitter.com/SiobhansVoice"],"keywords":[],"street":"Mawson Close","city":"London","state":null,"phone":"+44(0)7976871367","email":"siobhan@siobhandowd.com","fax":null,"lat":51.40801360685257,"lon":-0.21416902542114258},{"name":"CERVECERIA SCHOPPEN","description":"Cervecería especializada en cervezas de Importación, Quesos, Patês, Crèps y Salchichas","links":["http://www.schoppen.es"],"keywords":[],"street":"Avenida de España, 17","city":"Alcobendas","state":"Madrid","phone":"916526245","email":"fb@schoppen.es","fax":null,"lat":40.5482274450719,"lon":-3.64054083824158},{"name":"CERVECERIA SCHOPPEN","description":"Tómate tus cervezas favoritas pagando con Bitcoins","links":["http://www.schoppen.es"],"keywords":[],"street":"Avenida de España, 17","city":"Alcobendas","state":"Madrid","phone":"916526245","email":"fb@schoppen.es","fax":null,"lat":40.5477219941757,"lon":-3.6379337310791},{"name":"Sticker Status","description":"Custom Decals vehicle wraps, marketing and more","links":["http://stickerstatus.com","https://www.facebook.com/stickerstatusboise"],"keywords":[],"street":"2735 S Cole Rd ","city":"Boise","state":"ID","phone":"2082972117","email":"stickerstatusboise@gmail.com","fax":null,"lat":43.6187958563423,"lon":-116.261937618256},{"name":"Idaho Crypto Group","description":null,"links":["http://idahocryptogroup.com","https://www.facebook.com/idahocryptogroup"],"keywords":[],"street":"6477 Fairview Ave","city":"Boise","state":"ID","phone":"2084881406","email":"idahocryptogroup@gmail.com.com","fax":null,"lat":43.618780322153135,"lon":-116.26172304153442},{"name":"Cornelia Kruger","description":"Holistic Horse Farm is a small holistic equine boarding facility and retreat center. We offer a great variety of packages and services for riders and non riders alike. Anyone who loves animals and nature will enjoy time spent with us.\nOur horses roam free on a 130ha wild farm, the boarding system is based on the research that shows that horses need to move and trickle feed throughout the day and night to promote optimal health and natural fitness.\nWe practice heart centered horsemanship and the horses all go bitless. \nWe offer retreat tourism packages, workshops, courses and corporate team building events. ","links":["https://holistic-horse-paddock-paradise.business.site/","https://www.facebook.com/HolisticHorseWomen/"],"keywords":[],"street":"Vleesbaai","city":"Mossel Bay","state":"Western Cape","phone":"0798835386","email":"holistichorsewomen@gmail.com","fax":null,"lat":-34.09993618992405,"lon":21.719970703125},{"name":"Brummelli","description":"Premium Handcrafted Leather Shoes for Men","links":["http://www.brummelli.com","https://www.facebook.com/brummellishoes","https://www.twitter.com/brummellishoes"],"keywords":[],"street":null,"city":"Dubai","state":null,"phone":null,"email":"support@brummelli.com","fax":null,"lat":24.909855760866783,"lon":55.11816143989563},{"name":"Delicios Cafe","description":"Serving Nasi Ayam Apollo (chicken rice) and Satay (grilled meat on sticks - chicken, beef, lamb and rabbit too).\n\nOpens daily from Tuesday to Sunday (closed on Monday) from 11am to 11pm.\n\nFor singles and families too. Also available for large groups too - up to 50 diners at a time.\n\nDine-in or Take-away.\n\nCASH ONLY - Ringgit Malaysia (RM), or cryptocurrencies too: Bitcoin (BTC), Litecoin (LTC), Dash, Ethereum (ETH), Smartcash (SMART) and Zcoin (XZC) especially.\n\nDelicios - really delicious !!","links":["https://www.facebook.com/delicioscafe"],"keywords":[],"street":"Jalan Teluk Kumbar","city":"Bayan Lepas","state":"PP","phone":"+60195475227","email":"matjamil67@gmail.com","fax":null,"lat":5.28912131964608,"lon":100.247556567192},{"name":"mblradio","description":null,"links":[],"keywords":[],"street":null,"city":null,"state":null,"phone":null,"email":null,"fax":null,"lat":56.30152126891836,"lon":38.119924664497375},{"name":"Faizan Casting","description":"We Are accepted all crypto currencys in Gold  Jewellery manufacturing we Have beautiful Designs Of jewellery","links":["https://www.facebook.com/Faizancasting","https://www.twitter.com/Faizan1984"],"keywords":[],"street":"Dr daud pota road Saddar","city":"Karachi","state":"sindh","phone":"00923218299084","email":"faizancasting109@gmail.com","fax":null,"lat":24.8601459532397,"lon":67.0296907424927},{"name":"YESTILE","description":"Somos una empresa dedicada a la confección de trajes elegantes para caballero y ropa para dama. Recibimos todas las tarjetas de crédito y también aceptamos Bitcoin.","links":["https://www.facebook.com/ystl.ishop/"],"keywords":[],"street":"Calle 65 sur # 78 d-01","city":"bogota","state":"Colombia","phone":"3228356358","email":"yestile@hotmail.com","fax":null,"lat":4.603059416141755,"lon":-74.18286859989166},{"name":"D'ago Woodfired Pizzeria and kebab cafe","description":"Woodfired pizza, kebab, chips, coffee, cold drinks","links":["https://www.facebook.com/dagowoodfire/"],"keywords":[],"street":"12 Annerley Rd","city":"Brisbane","state":"Queensland","phone":null,"email":null,"fax":null,"lat":-27.48660638416776,"lon":153.0291759967804},{"name":"The Roll Shop","description":"Vietnamese rolls, Banh mi, roast crackling pork, pork belly stew with quail eggs, congee, iced coffee, cold drinks, also cater for vegans","links":["https://www.facebook.com/therollshop"],"keywords":[],"street":"Gresham Lane side","city":"Brisbane","state":"Queensland","phone":"32216928","email":null,"fax":null,"lat":-27.467002830498537,"lon":153.02800118923187},{"name":"Glow Golf","description":"play minature golf inside, bar, wine, drinks","links":["http://www.glowgolf.com.au"],"keywords":[],"street":null,"city":"Melbourne","state":"Victoria","phone":null,"email":null,"fax":null,"lat":-37.812674321752674,"lon":144.937402009964},{"name":"STK Comms","description":"Construction, landscaping services, equipment hire","links":["https://www.facebook.com/stkcomms"],"keywords":[],"street":null,"city":null,"state":null,"phone":null,"email":null,"fax":null,"lat":-37.87408272455685,"lon":145.283203125},{"name":"Avanti Painting Services","description":"Renovation and painting services","links":["https://avantipaintingservices275805382.wordpress.com"],"keywords":[],"street":null,"city":null,"state":null,"phone":"0411221913","email":null,"fax":null,"lat":-34.930802669031614,"lon":138.58956277370453},{"name":"Mina Trading Group","description":"exchange online","links":["http://mina-exchange.com"],"keywords":[],"street":null,"city":null,"state":null,"phone":null,"email":null,"fax":null,"lat":3.193317774551631,"lon":101.73541009426117},{"name":"TRC가맹점♥미소연세","description":"★TRC PAY 결제 가맹점★","links":[],"keywords":[],"street":"일산동구 중앙로1275번길38-10","city":"일산동구","state":"경기도 고양시","phone":"01048257123","email":null,"fax":null,"lat":37.6598003244757,"lon":126.770913004875},{"name":"Dylan Cotton Artworks","description":"Art Gallery","links":["https://www.dylancotton.com"],"keywords":[],"street":null,"city":null,"state":null,"phone":null,"email":null,"fax":null,"lat":50.46111039606272,"lon":-4.820659160614014},{"name":"연습","description":null,"links":[],"keywords":[],"street":null,"city":null,"state":null,"phone":null,"email":null,"fax":null,"lat":37.517380779256335,"lon":126.89510464668274},{"name":"Independent Reserve","description":"Independent Reserve is an Australian institutional grade cryptocurrency exchange with an orderbook enabling \n\nAustralian and NZ clients to securely trade, invest and hold digital currencies.","links":["https://www.independentreserve.com","https://www.facebook.com/pg/independentreserve"],"keywords":[],"street":"44 Market St","city":"Sydney","state":"NSW","phone":null,"email":"general@independentreserve.com","fax":null,"lat":-33.8708965899207,"lon":151.20612144470215},{"name":"MS HoofCare","description":"HoofCare and farrier service ~50km around Wehrheim","links":["http://www.ms-hoofcare.de","https://www.facebook.com/mshoofcare"],"keywords":[],"street":"Postfach","city":"Wehrheim","state":"Hessen","phone":"+4960819291546","email":"info@ms-hoofcare.de","fax":null,"lat":50.28009469678156,"lon":8.5423743724823},{"name":"Tetragram projekt d.o.o.","description":"Gold and Silver Bullion Retail & Wholesale","links":["http://www.plemenit.hr"],"keywords":[],"street":"Svetice 19","city":"Zagreb","state":"Hrvatska","phone":"+38512365857","email":"info@tetragram.hr","fax":null,"lat":45.81267513229389,"lon":16.01383924484253},{"name":"a.a javad institue","description":null,"links":["http://aajavad.ac.ir"],"keywords":[],"street":"ghandi blv.","city":"yazd","state":"yazd","phone":"035 38227808","email":"smh.mottaghy61@gmail.com","fax":null,"lat":31.83186528110162,"lon":54.3765252828598},{"name":"The KEE Resort & Spa Patong","description":"The KEE Resort & Spa was named after the owner of the land where the resort now stands.","links":["http://www.thekeeresort.com","https://www.facebook.com/thekeeresortandspa","https://www.twitter.com/Thekeethailand"],"keywords":[],"street":"Thaveewong Rd.","city":"Patong beach, Ban Patong","state":"Phuket","phone":"+66 76 335 888","email":"rsvn@thekeeresort.com","fax":null,"lat":7.89471182881143,"lon":98.2972204685211},{"name":"Longbar Patong","description":"Longbar is The most historic landmarks, which translates to“heaven on earth”. As a Fairytale land that filled with richness and beauty.","links":["http://www.longbarpatong.com","https://www.facebook.com/LongbarPatong/"],"keywords":[],"street":"Thawewong Rd,","city":"Patong beach, Ban Patong","state":"Phuket","phone":"+66 99 305 6333","email":"info@longbarpatong.com","fax":null,"lat":7.88807512053744,"lon":98.2920438051224},{"name":"Kenny Rogers Roasters Laguna","description":"Come join us ... food & drinks from Kenny Rogers Roasters @ Central Festival","links":["http://www.krrthailand.com/","https://www.facebook.com/krrthailand/"],"keywords":[],"street":"Chaloemprakiat Rama9","city":"Muang Phuket","state":"Phuket","phone":"+66 76618771","email":"info@krrthailand.com","fax":null,"lat":7.8911836000485875,"lon":98.36749970912933},{"name":"愛媛ハウス EHIME HOUSE","description":"■BTC/XRP/ETH/BCH/LTC■\nLand/Resale Homes and condos\n土地/中古住宅・マンション代金・仲介","links":["http://www.ehimehouse.com","https://www.facebook.com/ehimehousegoodhouse/","https://www.twitter.com/ehimehouse"],"keywords":[],"street":"HeiwaDori5-1-21","city":"Matsuyama","state":"Ehime","phone":"089-947-3777","email":null,"fax":null,"lat":33.8474294190244,"lon":132.761616110802},{"name":"Деловой Союз","description":"Корпоративная сотовая связь для ЮЛ и ИП","links":[],"keywords":[],"street":"Краснореченская","city":"Хабаровск","state":null,"phone":"+79098000003","email":"axiomllc27@gmail.com","fax":null,"lat":48.427566703731166,"lon":135.11181592941284},{"name":"AngryTribe Tours","description":"Недорогие походы по Камчатскому полуострову. Полный список можно найти на нашем сайте. От легких до сложных, от популярных до диких.\n:\n:\nCheap hikes on the Kamchatka Peninsula. A complete list can be found on our website. From easy to difficult, from popular to wild.","links":["http://angrytribe.org"],"keywords":[],"street":"Советская","city":"Петропавловск-Камчатский","state":"Kamchatskii Kray","phone":"+79775371793","email":"angrytribe@gmail.com","fax":null,"lat":53.021843960831085,"lon":158.6483073234558},{"name":"mamSSL.pl","description":"SSL Certificates / Certyfikaty SSL\nSoftware House\nWeb Development Agency\n","links":["https://mamSSL.pl","https://www.facebook.com/mamsslpl","https://www.twitter.com/mamSSLpl"],"keywords":[],"street":"Stanisława Kostki","city":"Szczecin","state":null,"phone":null,"email":null,"fax":null,"lat":53.43981591456951,"lon":14.511035084724426},{"name":"Dar Blockchain","description":"Blockchain Startups incubator and coworking space","links":["http://darblockchain.world","https://www.facebook.com/DarBlockchain/","https://www.twitter.com/DarBlockchain"],"keywords":[],"street":"Medinat el Oubeyla","city":"Nasr","state":"Ariana","phone":"50289148","email":"contact@darlbockchain.africa","fax":null,"lat":36.865978335397855,"lon":10.161666870117188},{"name":"fraykeys.tn","description":"FrayKeys.tn is a Tunisian video games reseller with the best prices on the market. \n~ Get Your Game ~","links":["http://www.fraykeys.tn","https://www.facebook.com/FraYKeys.tn/"],"keywords":[],"street":"medinat oubaila","city":"ennaser","state":"ariana","phone":"+21624702882","email":"fraykeysapp@gmail.com","fax":null,"lat":36.8658710414579,"lon":10.1616454124451},{"name":"Oranje Koffiehuis","description":null,"links":["https://www.facebook.com/OranjeKoffiehuis"],"keywords":[],"street":"Arke Noachstraat","city":"Arnhem","state":"Gelderland","phone":"026 351 4081","email":"oranjekoffiehuisarnhem@gmail.com","fax":null,"lat":51.98083612950417,"lon":5.909614562988281},{"name":"Anna Treurniet Sustainable Bags and Accessories","description":"Sustainable bags & accessories; Vegan, Recycled Leather or Eco-friendly leather. Locally made.","links":["https://annatreurniet.nl/"],"keywords":[],"street":"Waalbandijk","city":"Nijmegen","state":"Gelderland","phone":null,"email":"annatreurniet@gmail.com","fax":null,"lat":51.85301101564045,"lon":5.84773063659668},{"name":"Fotostudio René","description":null,"links":["http://www.fotostudiorene.at","https://www.facebook.com/fotostudiorene","https://www.instagram.com/fotostudiorene"],"keywords":[],"street":"Unterdorf","city":"Lechaschau","state":null,"phone":"+43 5672 72754","email":"info@fotostudiorene.at","fax":null,"lat":47.49425509510892,"lon":10.703199505805967},{"name":"Inner Beauty - อินเนอร์บิวติ้","description":"Hair Salon for Men and Women - ร้านทำผม – หญิง ชาย","links":[],"keywords":[],"street":"Sutthisan Winichai - ถนนสุทธิสารวินิจฉัย","city":"Bangkok","state":null,"phone":"+66633822486","email":"ya_innerbeauty@protonmail.com","fax":null,"lat":13.7896598632721,"lon":100.577752590179},{"name":"Hot Horse - Rudnik","description":null,"links":[],"keywords":[],"street":"Premrlova 14","city":"Ljubljana","state":null,"phone":null,"email":null,"fax":null,"lat":46.01869857964696,"lon":14.529333114624022},{"name":"Piknik plac Podpeč","description":null,"links":[],"keywords":[],"street":"Podpeč 39","city":"Preserje","state":null,"phone":null,"email":null,"fax":null,"lat":45.97415359409703,"lon":14.417667388916016},{"name":"Potokar, Ravne na Koroškem","description":null,"links":[],"keywords":[],"street":"Čečovlje 6","city":"Ravne na Koroškem","state":null,"phone":null,"email":null,"fax":null,"lat":46.542008060293426,"lon":14.964897036552431},{"name":"Potokar, Tržič","description":null,"links":[],"keywords":[],"street":"Cesta Kokrškega odreda 4","city":"Križe","state":null,"phone":null,"email":null,"fax":null,"lat":46.339558135237695,"lon":14.297322034835815},{"name":"Potokar, Vrhnika","description":null,"links":[],"keywords":[],"street":"Cankarjev trg 4","city":"Vrhnika","state":null,"phone":null,"email":null,"fax":null,"lat":45.96683469663075,"lon":14.298759698867796},{"name":"Austin Coin Laundry Bitcoin ATM","description":"Bitcoin of America is a reliable crypto trading and BTM operator serving millions of digital currency enthusiasts. ","links":["https://www.bitcoinofamerica.org/","https://www.facebook.com/bitcoinofamerica/","https://www.twitter.com/BTCofAmerica"],"keywords":[],"street":"2355 W Washington Blvd","city":"Chicago","state":"IL","phone":"18885025003","email":"support@bitcoinofamerica.org","fax":null,"lat":41.8827739320029,"lon":-87.6861387491226},{"name":"ALQUIMIA NATURAL","description":"Cosmetica Natural, productos de alta calidad","links":["http://ALQUIMIANATURAL.com.ar","https://www.facebook.com/alquimianaturalweb/","https://www.twitter.com/alquimianat"],"keywords":[],"street":"Bauness","city":"Villa Urquiza","state":"Buenos Aires","phone":"+5491131529146","email":"alquimianaturalweb@gmail.com","fax":null,"lat":-34.5711255320643,"lon":-58.4908944368362},{"name":"TIENDAS DEPORTIVAS POWER PLAY ","description":"SPORTS SHOES. ADIDAS, NIKE, SKECHERS. WE RECEIVE BITCOIN, STELLAR, ETHEREUM, T.C, EFFECTIVE.","links":[],"keywords":[],"street":"calle 17 no 16 07","city":"DUITAMA","state":"BOYACA","phone":"3134361136","email":"jetq731231@gmail.com","fax":null,"lat":5.82794578974828,"lon":-73.032510119956},{"name":"TIENDAS DEPORTIVAS POWER PLAY","description":"SPORTS SHOES. ADIDAS, NIKE, SKECHERS. WE RECEIVE BITCOIN, STELLAR, ETHEREUM, T.C, EFFECTIVE.","links":[],"keywords":[],"street":"C.C INNOVO PLAZA","city":"DUITAMA","state":"BOYACA","phone":"3134361136","email":"jetq731231@gmail.com","fax":null,"lat":5.83238979732238,"lon":-73.0320092278998},{"name":"ARTCOPY","description":"Libreria - Papeleria - Computación - Proveedor de empresas","links":["http://www.artcopy.com.ar"],"keywords":[],"street":"Sarmiento ","city":"Ciudad Aut. de Bs. As.","state":"Argentina","phone":"43823366","email":"ventas@artcopy.com.ar","fax":null,"lat":-34.6054885212815,"lon":-58.3884608745575},{"name":"Lawso","description":"Empresa colombiana profesional comercializadora de productos tecnológicos y también prestadora de servicios enfocada a brindar soluciones a problemas de nuestros clientes y aliados en todo el territorio de Bogotá y todo Cundinamarca.","links":["http://lawso.ml","https://www.facebook.com/lawso","https://www.twitter.com/lawso"],"keywords":[],"street":"Transversal 11 # 5 45","city":null,"state":null,"phone":"3152991660","email":"gmlawso@gmail.com","fax":null,"lat":4.530115693725356,"lon":-74.23679172992706},{"name":"Megaline S.A.S","description":"Casa de intercambio de criptomonedas, especializado en bitcoin, centro de pagos, servicios y giros nacionales ( Transacciones en COP )","links":["http://www.megalines.com.co","https://www.facebook.com/megaline"],"keywords":[],"street":"Calle 63f # 23 - 30","city":"Bogota","state":"Bogota","phone":"3103070002","email":"gerencia@megalines.com.co","fax":null,"lat":4.655731895190949,"lon":-74.07153010368347},{"name":"Mind & Mill","description":"Mind & Mill is a terrific Coworking space that accepts cryptocurrency payments for it's members. It's also a gorgeous art gallery and event space.","links":["http://mindandmill.com","https://www.facebook.com/mindandmill","https://www.twitter.com/mindandmill"],"keywords":[],"street":"3615 Main St Ste 103","city":"Riverside","state":"CA","phone":"9513841881","email":"info@mindandmill.com","fax":null,"lat":33.98399453331596,"lon":-117.37353086471559},{"name":"YRSA","description":"Communication agency","links":["http://www.yrsa.fr"],"keywords":[],"street":"Emile Zola","city":"Paris","state":null,"phone":"+33667211612","email":"julien.cotel@yrsa.fr","fax":null,"lat":48.84685874848719,"lon":2.2916579246520996},{"name":"Imprenta HITZAK Inprimategi","description":"Impresión en todo tipo de materiales","links":[],"keywords":[],"street":"Florida 3","city":null,"state":null,"phone":"943551075","email":"hitzak@hitzak.com","fax":null,"lat":43.26901094613457,"lon":-1.973193883895874},{"name":"BP Gas Station Bitcoin ATM","description":"Bitcoin of America is a reputed and reliable BTM operator with years of experience in the business. Visit today!","links":["https://www.bitcoinofamerica.org/","https://www.facebook.com/bitcoinofamerica/","https://www.twitter.com/BTCofAmerica"],"keywords":[],"street":"1100 S Hanover Street","city":"Baltimore","state":"MD","phone":"8885025003","email":"support@bitcoinofamerica.org","fax":null,"lat":39.2764839415849,"lon":-76.6158306598663},{"name":"Citgo Gas Station Bitcoin ATM","description":"Bitcoin of America is amongst the rated and popular BTM operator in the country. Use our services today! ","links":["https://www.bitcoinofamerica.org/","https://www.facebook.com/bitcoinofamerica/","https://www.twitter.com/BTCofAmerica"],"keywords":[],"street":"2001 Orleans Street","city":"Baltimore","state":"MD","phone":"18885025003","email":"support@bitcoinofamerica.org","fax":null,"lat":39.2953009814288,"lon":-76.5889549255371},{"name":"Pratt Liquor Bitcoin ATM","description":"Bitcoin of America is a name you can trust for all cryptocurrency exchanges. Visit this BTM location today!","links":["https://www.bitcoinofamerica.org/","https://www.facebook.com/bitcoinofamerica/","https://www.twitter.com/BTCofAmerica"],"keywords":[],"street":"1812 W Pratt Street","city":"Baltimore","state":"MD","phone":"18885025003 ","email":"support@bitcoinofamerica.org","fax":null,"lat":39.285374086686986,"lon":-76.64560317993163},{"name":"Roland Park Exxon Bitcoin ATM","description":"Bitcoin of America is a popular crypto trading platform, a name you can trust for all cryptocurrency transactions. ","links":["https://www.bitcoinofamerica.org/","https://www.facebook.com/bitcoinofamerica/","https://www.twitter.com/BTCofAmerica"],"keywords":[],"street":"5425 Falls Road","city":"Baltimore","state":"MD","phone":"18885025003 ","email":"support@bitcoinofamerica.org","fax":null,"lat":39.36120789978702,"lon":-76.64600014686584},{"name":"Save More Gas Station Bitcoin ATM","description":"Bitcoin of America is a popular crypto trading platform which can be trusted for all digital currency exchanges. ","links":["https://www.bitcoinofamerica.org/","https://www.facebook.com/bitcoinofamerica/","https://www.twitter.com/BTCofAmerica"],"keywords":[],"street":"4200 Wabash Avenue","city":"Baltimore","state":"MD","phone":"18885025003","email":"support@bitcoinofamerica.org","fax":null,"lat":39.334828521261365,"lon":-76.67239844799042},{"name":"Marathon Express Gas Station Bitcoin ATM","description":"Bitcoin of America is one renowned crypto trading platform offering wide range of options. Visit this kiosk today!","links":["https://www.bitcoinofamerica.org/","https://www.facebook.com/bitcoinofamerica/","https://www.twitter.com/BTCofAmerica"],"keywords":[],"street":"1811 S 17th Avenue","city":"Broadview","state":"IL","phone":"18885025003","email":"support@bitcoinofamerica.org","fax":null,"lat":41.870447644461855,"lon":-87.85281121730804},{"name":"Galerias Bitcoin ATM","description":null,"links":[],"keywords":[],"street":null,"city":null,"state":null,"phone":null,"email":null,"fax":null,"lat":32.5084407727775,"lon":-116.992828845978},{"name":"Tapizados Carrera","description":"Fabrica y reparacion de Tapizados, Silleteria Carpas, Playeras","links":[],"keywords":[],"street":null,"city":null,"state":null,"phone":"3013232049","email":null,"fax":null,"lat":4.136354379191398,"lon":-73.63168537616728},{"name":"ComPrinter del LLano","description":"Partes, Acdcesorios, Suministros para Computador","links":[],"keywords":[],"street":null,"city":null,"state":null,"phone":"3124489598","email":null,"fax":null,"lat":4.1502172604638305,"lon":-73.6364758014679},{"name":"Cryptocoinex","description":"Cajero de criptomonedas, Cryptocurrencies ATM","links":["http://www.cryptocoinex.io"],"keywords":[],"street":"Cra. 48 #10 45","city":"medellin","state":"antioquia","phone":null,"email":"cryptocoinex.io@gmail.com","fax":null,"lat":6.21422322988496,"lon":-75.57660341262817},{"name":"Cryptocoinex","description":"Cajero de criptomonedas, Cryptocurrencies ATM","links":["http://www.cryptocoinex.io"],"keywords":[],"street":"Carrera 25A No. 1A Sur 45","city":"Medellin","state":"Antioquia","phone":null,"email":"cryptocoinex.io@gmail.com","fax":null,"lat":6.197104351119925,"lon":-75.55857360363007},{"name":"Cryptocoinex","description":"Cajero de criptomonedas, Cryptocurrencies ATM","links":["http://www.cryptocoinex.io"],"keywords":[],"street":"Cra. 43A #30-25","city":"Medellin","state":"Antioquia","phone":null,"email":"cryptocoinex.io@gmail.com","fax":null,"lat":6.229149797744958,"lon":-75.57028412818909},{"name":"D. Dental","description":"General/Family/Cosmetic Dentist","links":["http://www.castlehillsdentistry.com"],"keywords":[],"street":"2650 E. S.H. 121","city":"The Colony","state":"TX","phone":"972-315-6060","email":"castlehillsdentist@gmail.com","fax":null,"lat":33.0570499783366,"lon":-96.906441450119},{"name":"Currency Exchange Bitcoin ATM","description":"Bitcoin of America is the best place to trade cryptocurrencies, every time you’ll find the best exchange rate here. ","links":["https://www.bitcoinofamerica.org/","https://www.facebook.com/bitcoinofamerica/","https://www.twitter.com/BTCofAmerica"],"keywords":[],"street":"803 E 63rd Street","city":"Chicago","state":"IL","phone":"18885025003","email":"support@bitcoinofamerica.org","fax":null,"lat":41.78022091983774,"lon":-87.60551154613495},{"name":"Currency Exchange (Cottage Grove) Bitcoin ATM","description":"Are you looking for a safe and secure BTM operator? Bitcoin of America is the one place to visit for all exchanges.","links":["https://www.bitcoinofamerica.org/","https://www.facebook.com/bitcoinofamerica/","https://www.twitter.com/BTCofAmerica"],"keywords":[],"street":"7859 S Cottage Grove Ave","city":"Chicago","state":"IL","phone":"18885025003","email":"support@bitcoinofamerica.org","fax":null,"lat":41.7514564661545,"lon":-87.6049911975861},{"name":"King Food and Liquor Bitcoin ATM","description":"Looking for a safe cryptocurrency trading platform? Bitcoin of America is always available to serve you!","links":["https://www.bitcoinofamerica.org/","https://www.facebook.com/bitcoinofamerica/","https://www.twitter.com/BTCofAmerica"],"keywords":[],"street":"6759 S Western Avenue","city":"Chicago","state":"IL","phone":"18885025003","email":"support@bitcoinofamerica.org","fax":null,"lat":41.7703074623953,"lon":-87.6831132173538},{"name":"Star Gyro Bitcoin ATM","description":"Cryptocurrency trading is made fast and hassle-free by Bitcoin of America BTM kiosks. Come visit our store now!","links":["https://www.bitcoinofamerica.org/","https://www.facebook.com/bitcoinofamerica/","https://www.twitter.com/BTCofAmerica"],"keywords":[],"street":"3400 W Roosevelt Road","city":"Chicago","state":"IL","phone":"18885025003","email":"support@bitcoinofamerica.org","fax":null,"lat":41.86655274638234,"lon":-87.7107560634613},{"name":"The Galleria Bitcoin ATM","description":"Bitcoin of America is cheapest and safest cryptocurrency trading platform, we are always available at your service. ","links":["https://www.bitcoinofamerica.org/","https://www.facebook.com/bitcoinofamerica/","https://www.twitter.com/BTCofAmerica"],"keywords":[],"street":"340 West Superior Street","city":"Chicago","state":"IL","phone":"18885025003","email":"support@bitcoinofamerica.org","fax":null,"lat":41.89580861080685,"lon":-87.6377946138382},{"name":"Die Waage - Bäuerliche Sinnlichkeiten","description":"2-Personen-Hof. Bereiten in Handarbeit und Kleinmengen aus eigener Ernte Marmeladen,Extrakte ","links":["https://www.gourmetkater.com","https://www.facebook.com/FirmaHintz","https://www.twitter.com/gourmetkater"],"keywords":[],"street":"Friedrich-Knaust-Platz","city":"Bernburg","state":"Sachsen-Anhalt","phone":null,"email":null,"fax":null,"lat":51.7652703146276,"lon":11.7939949035645},{"name":"Vincennes Currency Exchange Bitcoin ATM","description":"Finally the search for a reliable and safe crypto trading ends with Bitcoin of America. Visit our stores today!","links":["https://www.bitcoinofamerica.org/","https://www.facebook.com/bitcoinofamerica/","https://www.twitter.com/BTCofAmerica"],"keywords":[],"street":"250 W 75th Street","city":"Chicago","state":"IL","phone":"18885025003","email":"support@bitcoinofamerica.org","fax":null,"lat":41.75829164259673,"lon":-87.6315826177597},{"name":"Convenient Food Mart Bitcoin ATM","description":"Bitcoin of America stands out from other popular BTM operators in the country for quality customer service. Use our services to realize.","links":["https://www.bitcoinofamerica.org/","https://www.facebook.com/bitcoinofamerica/","https://www.twitter.com/BTCofAmerica"],"keywords":[],"street":"4828 State Road","city":"Cleveland","state":"OH","phone":"18885025003","email":"support@bitcoinofamerica.org","fax":null,"lat":41.42308355837751,"lon":-81.71030580997467},{"name":"Green Light Beverage Liquor Store Bitcoin ATM","description":"Searching for a safe and secure crypto trading platform? How about using Bitcoin of America platform?","links":["https://www.bitcoinofamerica.org/","https://www.facebook.com/bitcoinofamerica/","https://www.twitter.com/BTCofAmerica"],"keywords":[],"street":"18314 Euclid Avenue","city":"Cleveland","state":"OH","phone":"18885025003","email":"support@bitcoinofamerica.org","fax":null,"lat":41.5564684514313,"lon":-81.5499258041382},{"name":"Evergreen Food Market Bitcoin ATM","description":"Searching for a safe and secure crypto trading platform? How about using Bitcoin of America exchange?","links":["https://www.bitcoinofamerica.org/","https://www.facebook.com/bitcoinofamerica/","https://www.twitter.com/BTCofAmerica"],"keywords":[],"street":"915 S James Road","city":"Columbus","state":"OH","phone":"18885025003","email":"support@bitcoinofamerica.org","fax":null,"lat":39.9522989390039,"lon":-82.9158353805542},{"name":"Exxon Gas Bitcoin ATM","description":"With Bitcoin of America your search for safe and secure trading platform ends, we promise you of best service always.","links":["https://www.bitcoinofamerica.org/","https://www.facebook.com/bitcoinofamerica/","https://www.twitter.com/BTCofAmerica"],"keywords":[],"street":"2330 Aramingo Avenue","city":"Philadelphia","state":"PA","phone":"18885025003","email":"support@bitcoinofamerica.org","fax":null,"lat":39.9752743426084,"lon":-75.1215612888336},{"name":"Exxon North Philli Bitcoin ATM","description":"Bitcoin of America is amongst the top rated crypto trading platforms in the United States, start using our services.","links":["https://www.bitcoinofamerica.org/","https://www.facebook.com/bitcoinofamerica/","https://www.twitter.com/BTCofAmerica"],"keywords":[],"street":"6201 N Broad Street","city":"Philadelphia","state":"PA","phone":"18885025003","email":"support@bitcoinofamerica.org","fax":null,"lat":40.0478460662404,"lon":-75.14221966266632},{"name":"D and L Liquor Store Bitcoin ATM","description":"Wanting to trade cryptocurrencies? Bitcoin of America is a name you can trust for all crypto exchanges.","links":["https://www.bitcoinofamerica.org/","https://www.facebook.com/bitcoinofamerica/","https://www.twitter.com/BTCofAmerica"],"keywords":[],"street":"13325 Livernois Avenue","city":"Detroit","state":"MI","phone":"18885025003","email":"support@bitcoinofamerica.org","fax":null,"lat":42.3861788054379,"lon":-83.14011096954346},{"name":"Citgo Gas Station McNichols Bitcoin ATM","description":"Bitcoin of America has emerged as the best platform for cryptocurrency exchanges in the United States off late.","links":["https://www.bitcoinofamerica.org/","https://www.facebook.com/bitcoinofamerica/","https://www.twitter.com/BTCofAmerica"],"keywords":[],"street":"13601 W McNichols Road","city":"Detroit","state":"MI","phone":"18885025003","email":"support@bitcoinofamerica.org","fax":null,"lat":42.41624512182386,"lon":-83.18022608757019},{"name":"Citgo Gas Station Conner Bitcoin ATM","description":"Have you used Bitcoin of America platform for cryptocurrency trading yet? Experience superior trading.","links":["https://www.bitcoinofamerica.org/","https://www.facebook.com/bitcoinofamerica/","https://www.twitter.com/BTCofAmerica"],"keywords":[],"street":"3800 Conner Street","city":"Detroit","state":"MI","phone":"18885025003","email":"support@bitcoinofamerica.org","fax":null,"lat":42.38405103812383,"lon":-82.96730160713196},{"name":"CITGO Gas Station Indianapolis Bitcoin ATM","description":"Bitcoin of America emerged as a popular name in the crypto industry for its wide network and service.","links":["https://www.bitcoinofamerica.org/","https://www.facebook.com/bitcoinofamerica/","https://www.twitter.com/BTCofAmerica"],"keywords":[],"street":"1856 N Rural Street","city":"Indianapolis","state":"IN","phone":"18885025003","email":"support@bitcoinofamerica.org","fax":null,"lat":39.79233494441443,"lon":-86.11709475517273},{"name":"Germantown Gas Bitcoin ATM","description":"For fast and secure cryptocurrency trading experience, switch to Bitcoin of America trading platforms today!","links":["https://www.bitcoinofamerica.org/","https://www.facebook.com/bitcoinofamerica/","https://www.twitter.com/BTCofAmerica"],"keywords":[],"street":"2445 Germantown Avenue","city":"Philadelphia","state":"PA","phone":"18885025003","email":"support@bitcoinofamerica.org","fax":null,"lat":39.98967320401297,"lon":-75.14701008796692},{"name":"Baby Sofie","description":null,"links":["https://www.facebook.com/Baby-Sofie-1189432197850233"],"keywords":[],"street":"Koningstraat","city":"Arnhem","state":null,"phone":null,"email":null,"fax":null,"lat":51.981302002252,"lon":5.91012954711914},{"name":"Carwash Vissinga","description":"Please pay beforehand in the garage - Bitcoin terminal is not located in the carwash","links":[],"keywords":[],"street":"Dr. C. Lelyweg","city":"Arnhem","state":null,"phone":null,"email":null,"fax":null,"lat":51.9720232834623,"lon":5.93348622322082},{"name":"Loesje","description":null,"links":["https://www.loesje.nl","https://www.facebook.com/Loesjevdposters","https://www.twitter.com/loesjenl"],"keywords":[],"street":"Hommelstraat","city":"Arnhem","state":null,"phone":null,"email":null,"fax":null,"lat":51.9851510491336,"lon":5.914067029953},{"name":"Dudok Studio's","description":null,"links":["http://dudokstudios.nl","https://www.facebook.com/Dudokarnhem"],"keywords":[],"street":"Koningstraat","city":"Arnhem","state":null,"phone":null,"email":null,"fax":null,"lat":51.9817315260245,"lon":5.91016173362732},{"name":"Doreen Styling","description":null,"links":["https://www.facebook.com/doreenstyling"],"keywords":[],"street":"Rosendaalsestraat","city":"Arnhem","state":null,"phone":null,"email":null,"fax":null,"lat":51.9874107646136,"lon":5.9230899810791},{"name":"Creme de la Creme","description":"Beauty and skin care","links":["http://www.huidverzorgingcremedelacreme.nl/","https://www.facebook.com/cremedelacremehuidverzorging"],"keywords":[],"street":"Rosendaalsestraat","city":"Arnhem","state":null,"phone":null,"email":null,"fax":null,"lat":51.9903310467211,"lon":5.92937707901001},{"name":"OLB Sports","description":"Sporting equipment / goods","links":["http://www.olbsports.nl","https://www.facebook.com/olbsports"],"keywords":[],"street":"Steenstraat","city":"Arnhem","state":null,"phone":null,"email":null,"fax":null,"lat":51.9843614433072,"lon":5.92002153396606},{"name":"Party Grime Carnaval Shop","description":"Souvenirs and party outfits / attributes","links":["http://www.partygrimecarnavalshop.nl","https://www.facebook.com/partygrimecarnavalshop"],"keywords":[],"street":"Koningstraat","city":"Arnhem","state":null,"phone":null,"email":null,"fax":null,"lat":51.9806577088708,"lon":5.91000080108643},{"name":"Epic Leather","description":"Handmade leather goods","links":["https://www.facebook.com/epicleathernl"],"keywords":[],"street":"Thomas J. Witteroosstraat","city":"Arnhem","state":null,"phone":null,"email":null,"fax":null,"lat":51.9749049146765,"lon":5.92096567153931},{"name":"iogurtie's","description":null,"links":["http://www.iogurties.nl","https://www.facebook.com/iogurties"],"keywords":[],"street":"Bakkerstraat","city":"Arnhem","state":null,"phone":null,"email":null,"fax":null,"lat":51.9795309991988,"lon":5.90862214565277},{"name":"Anne & Max","description":null,"links":["http://annemax.nl/vestigingen/arnhem/","https://www.facebook.com/AnneMax-Arnhem-903608036394521/"],"keywords":[],"street":"Bakkerstraat","city":"Arnhem","state":null,"phone":null,"email":null,"fax":null,"lat":51.9794550030981,"lon":5.90830028057098},{"name":"DoctorPhone","description":"Smartphone & tablet repairs and goods","links":["https://www.DoctorPhone.nl","https://www.facebook.com/DoctorPhone.nl","https://www.twitter.com/DoctorPhoneNL"],"keywords":[],"street":"Steenstraat","city":"Arnhem","state":null,"phone":null,"email":null,"fax":null,"lat":51.9840971369921,"lon":5.91865360736847},{"name":"Eigen Stijl Boetiek","description":null,"links":["http://www.eigenstijlarnhem.nl/","https://www.facebook.com/EigenStijlBoetiek"],"keywords":[],"street":"Steenstraat","city":"Arnhem","state":null,"phone":null,"email":null,"fax":null,"lat":51.984107048507,"lon":5.91872334480286},{"name":"Eigen Stijl","description":null,"links":["http://www.eigenstijlarnhem.nl/","https://www.facebook.com/eigenstijlarnhem"],"keywords":[],"street":"Steenstraat","city":"Arnhem","state":null,"phone":null,"email":null,"fax":null,"lat":51.9842028597052,"lon":5.9179025888443},{"name":"Little Things","description":"Baby goods","links":["http://www.littlethingsonline.nl/","https://www.facebook.com/littlethingsarnhem"],"keywords":[],"street":"Kerkstraat","city":"Arnhem","state":null,"phone":null,"email":null,"fax":null,"lat":51.9806015392651,"lon":5.90927124023438},{"name":"Sofra","description":"Turkisch lunchroom or high tea","links":["http://sofra-arnhem.nl","https://www.facebook.com/lunchroomsofra"],"keywords":[],"street":"Pastoorstraat","city":"Arnhem","state":null,"phone":null,"email":null,"fax":null,"lat":51.9798548072264,"lon":5.90919613838196},{"name":"Pollmann","description":"Tableware and other kitchen attributes","links":["http://www.pollmann.nl","https://www.facebook.com/pollmannserviesnl"],"keywords":[],"street":"Kerkstraat","city":"Arnhem","state":null,"phone":null,"email":null,"fax":null,"lat":51.9807105743178,"lon":5.90912103652954},{"name":"Barley's Oriental Garden","description":"Asian streetfood and lots of specialty beers","links":["http://www.barleys-arnhem.nl/","https://www.facebook.com/barleysarnhem"],"keywords":[],"street":"Pauwstraat","city":"Arnhem","state":null,"phone":null,"email":null,"fax":null,"lat":51.9824881386523,"lon":5.9055107831955},{"name":"Mind Games","description":"Australia's biggest board game retailer. Accepts lightning network. ","links":["http://www.mindgamesmelbourne.com","https://www.facebook.com/MindGamesMelb"],"keywords":[],"street":"244 Swanston Street","city":"Melbourne","state":"Victoria","phone":"+61399237723","email":"sales@mindgamesmelbourne.com","fax":null,"lat":-37.8121699986989,"lon":144.965318441391},{"name":"Mind Games","description":"Australia's biggest board game retailer. Accepts lightning. ","links":["http://www.mindgamesmelbourne.com","https://www.facebook.com/MindGamesMelb"],"keywords":[],"street":"145 Swanston Street","city":"Melbourne","state":"Victoria","phone":"+61396632828","email":"sales@mindgamesmelbourne.com","fax":null,"lat":-37.8141745565212,"lon":144.96588042819},{"name":"Hub Express","description":"Convenience store with bitcoin atm","links":[],"keywords":[],"street":"179 Bourke Street","city":"Melbourne","state":"Victoria","phone":null,"email":null,"fax":null,"lat":-37.8129455528949,"lon":144.967979192734},{"name":"TECNOLOGIA PREMIER","description":"ATM BITCOIN AND BITCOIN STORE","links":["http://www.premier.com.ar"],"keywords":[],"street":"FLORIDA","city":"CIUDAD AUTONOMA DE BUENOS AIRES","state":"BUENOS AIRES","phone":null,"email":"tecnologia@premier.com.ar","fax":null,"lat":-34.5908238302166,"lon":-58.3943939208984},{"name":"PREMIER BITCOIN STORE","description":"BITCOIN STORE AND BLOCKCHAIN CONSULTING","links":["http://www.premier.com.ar"],"keywords":[],"street":"FLORIDA","city":"CIUDAD DE BUENOS AIRES","state":"ARGENTINA","phone":null,"email":"tecnologia@premier.com.ar","fax":null,"lat":-34.58630158452929,"lon":-58.415164947509766},{"name":"AseoCity","description":"Cleaning products, cafeteria, plastic and disposable.","links":[],"keywords":[],"street":"Carrera 69 # 64H-39","city":"Bogotá","state":"Cundinamarca","phone":"3212627513 / 3204646175","email":"aycenbitcoin@gmail.com","fax":null,"lat":4.673712676346808,"lon":-74.09389436244965},{"name":"Valero Gas station in Metairie Bitcoin ATM","description":"We at Bitcoin of America is striving hard to enhance your crypto trading experience. Use our platform today!","links":["https://www.bitcoinofamerica.org/","https://www.facebook.com/bitcoinofamerica/","https://www.twitter.com/BTCofAmerica"],"keywords":[],"street":"1919 Airlines Dr","city":"Metairie","state":"LA","phone":"18885025003","email":"support@bitcoinofamerica.org","fax":null,"lat":29.974174705681687,"lon":-90.14718890190125},{"name":"Walters Shopping Place Bitcoin ATM","description":"For a safe and secure platform to trade digital currencies, Bitcoin of America is the best option. Are you aware?","links":["https://www.bitcoinofamerica.org/","https://www.facebook.com/bitcoinofamerica/","https://www.twitter.com/BTCofAmerica"],"keywords":[],"street":"12197 Conant","city":"Hamtramck","state":"MI","phone":"18885025003","email":"support@bitcoinofamerica.org","fax":null,"lat":42.4086526571647,"lon":-83.05716633796692},{"name":"Stichting MADspace","description":"Hackerspace Eindhoven","links":["https://www.madspace.nl","https://www.twitter.com/MADspaceNL"],"keywords":[],"street":"Bilderdijklaan","city":"Eindhoven","state":"Noord Brabant","phone":null,"email":null,"fax":null,"lat":51.4337183067715,"lon":5.48196315765381},{"name":"University Exxon Gas Bitcoin ATM","description":"End your search for a popular crypto trading platform with Bitcoin of America; we are here to serve you!","links":["https://www.bitcoinofamerica.org/","https://www.facebook.com/bitcoinofamerica/","https://www.twitter.com/BTCofAmerica"],"keywords":[],"street":"3101 N Broad Street","city":"Philadelphia","state":"PA","phone":"18885025003","email":"support@bitcoinofamerica.org","fax":null,"lat":40.00018989463875,"lon":-75.15295922756195},{"name":"Tyson Citgo Gas Bitcoin ATM","description":"Experience top-notch crypto trading using Bitcoin of America platform, we are rated the best in the country.","links":["https://www.bitcoinofamerica.org/","https://www.facebook.com/bitcoinofamerica/","https://www.twitter.com/BTCofAmerica"],"keywords":[],"street":"7001 Castor Avenue","city":"Philadelphia","state":"PA","phone":"18885025003","email":"support@bitcoinofamerica.org","fax":null,"lat":40.047041187153106,"lon":-75.06958544254303},{"name":"The Vinery Bitcoin ATM","description":"Bitcoin of America takes pride to introduce people to a digital currency world. Visit our nearest store today!","links":["https://www.bitcoinofamerica.org/","https://www.facebook.com/bitcoinofamerica/","https://www.twitter.com/BTCofAmerica"],"keywords":[],"street":"3976 Pelham Street","city":"Dearborn Heights","state":"MI","phone":"18885025003","email":"support@bitcoinofamerica.org","fax":null,"lat":42.2816032156199,"lon":-83.2320249080658},{"name":"Texaco Gas Station Bitcoin ATM","description":"Have you been longing for safe crypto trading platform all these years? Here is Bitcoin of America at your services.","links":["https://www.bitcoinofamerica.org/","https://www.facebook.com/bitcoinofamerica/","https://www.twitter.com/BTCofAmerica"],"keywords":[],"street":"727 Fremaux Avenue","city":"Slidell","state":"LA","phone":"18885025003","email":"support@bitcoinofamerica.org","fax":null,"lat":30.27719659892433,"lon":-89.7757351398468},{"name":"Super Amigo Food Mart Bitcoin ATM","description":"Bitcoin of America BTM kiosks are spread across the country, locate our nearby BTM and start trading instantly.","links":["https://www.bitcoinofamerica.org/","https://www.facebook.com/bitcoinofamerica/","https://www.twitter.com/BTCofAmerica"],"keywords":[],"street":"7045 Navigation Blvd","city":"Houston","state":"TX","phone":"18885025003","email":"support@bitcoinofamerica.org","fax":null,"lat":29.743592308575824,"lon":-95.29700875282286},{"name":"SUNOCO Gas Station Bitcoin ATM","description":"Crypto trading is becoming fast and easy with Bitcoin of America platform, we have kiosks at every city now!","links":["https://www.bitcoinofamerica.org/","https://www.facebook.com/bitcoinofamerica/","https://www.twitter.com/BTCofAmerica"],"keywords":[],"street":"12600 Gratiot Avenue","city":"Detroit","state":"MI","phone":"18885025003","email":"support@bitcoinofamerica.org","fax":null,"lat":42.41829655339457,"lon":-82.98826038837433},{"name":"Stop and Go Liquor Bitcoin ATM","description":"Visit Bitcoin of America BTM nearby for top-notch crypto buying experience; we are dedicated to your satisfaction.","links":["https://www.bitcoinofamerica.org/","https://www.facebook.com/bitcoinofamerica/","https://www.twitter.com/BTCofAmerica"],"keywords":[],"street":"5238 Lancaster Avenue","city":"Philadelphia","state":"PA","phone":"18885025003","email":"support@bitcoinofamerica.org","fax":null,"lat":39.9774284046883,"lon":-75.2277553081512},{"name":"Stateside Express Bitcoin ATM","description":"Cryptocurrencies are new era money; Bitcoin of America gives easy access to this new generation money.","links":["https://www.bitcoinofamerica.org/","https://www.facebook.com/bitcoinofamerica/","https://www.twitter.com/BTCofAmerica"],"keywords":[],"street":"905 N Las Vegas","city":"Las Vegas","state":"NV","phone":"18885025003","email":"support@bitcoinofamerica.org","fax":null,"lat":36.18150622117258,"lon":-115.1344710588455},{"name":"Speedy Mart - Sullivant Avenue Bitcoin ATM","description":"Worried where to trade Bitcoin? With Bitcoin of America you will find a safe and secure platform.","links":["https://www.bitcoinofamerica.org/","https://www.facebook.com/bitcoinofamerica/","https://www.twitter.com/BTCofAmerica"],"keywords":[],"street":"4736 Sullivant Avenue","city":"Columbus","state":"OH","phone":"18885025003","email":"support@bitcoinofamerica.org","fax":null,"lat":39.940985198364565,"lon":-83.12585234642029},{"name":"Speedy Mart Bitcoin ATM","description":"Cryptocurrency trading is now becoming easy due to Bitcoin of America. Did you use our services yet?","links":["https://www.bitcoinofamerica.org/","https://www.facebook.com/bitcoinofamerica/","https://www.twitter.com/BTCofAmerica"],"keywords":[],"street":"1801 Ella Blvd","city":"Houston","state":"TX","phone":"18885025003","email":"support@bitcoinofamerica.org","fax":null,"lat":29.802140854955915,"lon":-95.43041110038757},{"name":"South Central 1st Gas Bitcoin ATM","description":"Bitcoin of America is one-stop platform to trade popular cryptocurrencies. Can you afford to miss this platform?","links":["https://www.bitcoinofamerica.org/","https://www.facebook.com/bitcoinofamerica/","https://www.twitter.com/BTCofAmerica"],"keywords":[],"street":"2111 S Cesar Chavez Blvd","city":"Dallas","state":"TX","phone":"18885025003","email":"support@bitcoinofamerica.org","fax":null,"lat":32.77155198909472,"lon":-96.78191184997557},{"name":"Right Aston Right Way Bitcoin ATM","description":"Enter into the new world of cryptos using Bitcoin of America BTM network & online trading platform. ","links":["https://www.bitcoinofamerica.org/","https://www.facebook.com/bitcoinofamerica/","https://www.twitter.com/BTCofAmerica"],"keywords":[],"street":"7350 Grand River","city":"Detroit","state":"MI","phone":"18885025003","email":"support@bitcoinofamerica.org","fax":null,"lat":42.35750534108675,"lon":-83.11024188995361},{"name":"Phillips 66 Bitcoin ATM","description":"Bitcoin of America is eagerly waiting to make crypto trading fast and secure for you. When are you visiting?","links":["https://www.bitcoinofamerica.org/","https://www.facebook.com/bitcoinofamerica/","https://www.twitter.com/BTCofAmerica"],"keywords":[],"street":"10393 W Florissant Avenue","city":"St Louis","state":"MO","phone":"18885025003","email":"support@bitcoinofamerica.org","fax":null,"lat":38.76025350501663,"lon":-90.2799528837204},{"name":"Pollock Art","description":"One Way € -> ₿ ATM","links":["http://www.pollockart.it"],"keywords":[],"street":"Schlachthofstraße","city":"Bozen","state":"Südtirol","phone":null,"email":null,"fax":null,"lat":46.498000827714996,"lon":11.366016268730164},{"name":"OLE PAY Bitcoin ATM","description":"Bitcoin of America brings for you popular & reliable crypto trading platform, visit our nearest store today. ","links":["https://www.bitcoinofamerica.org/","https://www.facebook.com/bitcoinofamerica/","https://www.twitter.com/BTCofAmerica"],"keywords":[],"street":"17800 Castleton Street Suite 580","city":"Los Angeles","state":"CA","phone":"18885025003","email":"support@bitcoinofamerica.org","fax":null,"lat":33.992281017685194,"lon":-117.91524052619934},{"name":"Cinedyne Films","description":"Media Production Service Provider","links":["http://cinedynefilms.com"],"keywords":[],"street":null,"city":null,"state":"California","phone":null,"email":null,"fax":null,"lat":34.176496044009205,"lon":-118.39689016342165},{"name":"Theater de Leeuw","description":"Bitcoin accepted at the location, for tickets (not online)","links":["https://theaterdeleeuw.nl/","https://www.facebook.com/theaterdeleeuw"],"keywords":[],"street":"Leeuwensteinplein","city":"Arnhem","state":null,"phone":null,"email":null,"fax":null,"lat":51.9889667304789,"lon":5.92755317687988},{"name":"Haar van Toonen","description":"Barber","links":["http://www.haarvantoonen.nl","https://www.facebook.com/HvanT"],"keywords":[],"street":"Klarendalseweg","city":"Arnhem","state":null,"phone":null,"email":null,"fax":null,"lat":51.9899511565435,"lon":5.92449009418488},{"name":"SubUrban Chef","description":null,"links":["http://urbanchef.nl","https://www.facebook.com/suburbanchefarnhem","https://www.twitter.com/urbanchefarnhem"],"keywords":[],"street":"Noordelijke Parallelweg","city":"Arnhem","state":null,"phone":null,"email":null,"fax":null,"lat":51.9868194173372,"lon":5.89197099208832},{"name":"The Workstation","description":"To eat / drink or bring your laptop and work","links":["http://www.theworkstation.nl","https://www.facebook.com/theworkstationarnhem"],"keywords":[],"street":"Gele Rijdersplein","city":"Arnhem","state":null,"phone":null,"email":null,"fax":null,"lat":51.9837601441782,"lon":5.9075653553009},{"name":"Clau-D","description":null,"links":["http://www.clau-d.nl","https://www.facebook.com/clau.d.arnhem"],"keywords":[],"street":"Sonsbeeksingel","city":"Arnhem","state":null,"phone":null,"email":null,"fax":null,"lat":51.9859835891542,"lon":5.91547787189484},{"name":"Kijk Alles","description":"Also sells mining hardware","links":["https://www.kijkalles.nl","https://www.facebook.com/kijkalles.nl","https://www.twitter.com/kijkalles_nl"],"keywords":[],"street":"Ing. JP Muijlwijkstraat","city":"Arnhem","state":null,"phone":null,"email":null,"fax":null,"lat":51.9845464567997,"lon":5.91470003128052},{"name":"Neighbourhood","description":null,"links":["http://nbarnhem.com","https://www.facebook.com/neighbourhoodarnhem"],"keywords":[],"street":"Rijnstraat","city":"Arnhem","state":null,"phone":null,"email":null,"fax":null,"lat":51.9815332847951,"lon":5.90467393398285},{"name":"Bizz","description":"Electronics and lighting","links":["https://www.facebook.com/Bizzlightstore"],"keywords":[],"street":"Steenstraat","city":"Arnhem","state":null,"phone":null,"email":null,"fax":null,"lat":51.9835090498451,"lon":5.91556906700134},{"name":"Loewe Galleries","description":"TV and sound","links":["http://bild.nl","https://www.facebook.com/bild.nl","https://www.twitter.com/loewearnhem"],"keywords":[],"street":"Ing. JP van Muijlwijkstraat","city":"Arnhem","state":null,"phone":null,"email":null,"fax":null,"lat":51.9840475793843,"lon":5.91457664966583},{"name":"Café Colours","description":null,"links":["http://cafecolours.nl","https://www.facebook.com/CafeColoursArnhem","https://www.twitter.com/coloursarnhem"],"keywords":[],"street":"Jansplein","city":"Arnhem","state":null,"phone":null,"email":null,"fax":null,"lat":51.9829143471253,"lon":5.90797305107117},{"name":"Café La Cannette","description":null,"links":["http://www.lacannette.nl","https://www.facebook.com/la.cannette"],"keywords":[],"street":"G.A. van Nispenstraat","city":"Arnhem","state":null,"phone":null,"email":null,"fax":null,"lat":51.9897000969184,"lon":5.89566707611084},{"name":"Woarst Delicatessen","description":"Specialty sausages and sandwiches","links":["http://woarst.nu","https://www.facebook.com/woarst","https://www.twitter.com/WoarstWinkel"],"keywords":[],"street":"Bentinckstraat","city":"Arnhem","state":null,"phone":null,"email":null,"fax":null,"lat":51.9807634397023,"lon":5.90890645980835},{"name":"Juwelier Goudsmid Punte","description":"Jewelry","links":["http://www.juwelierpunte.nl","https://www.facebook.com/JuwelierGoudsmidPunte"],"keywords":[],"street":"Rijnstraat","city":"Arnhem","state":null,"phone":null,"email":null,"fax":null,"lat":51.9815894532326,"lon":5.90597748756409},{"name":"Escape Vrijland","description":"Escape room!","links":["http://escapevrijlandarnhem.nl","https://www.facebook.com/escapevrijlandarnhem"],"keywords":[],"street":"Koningsweg","city":"Arnhem","state":null,"phone":null,"email":null,"fax":null,"lat":52.0343104377673,"lon":5.88420331478119},{"name":"Rose's Beach","description":"City beach, with cocktails","links":["https://www.facebook.com/RosesBeachArnhem"],"keywords":[],"street":"RIjnkade","city":"Arnhem","state":null,"phone":null,"email":null,"fax":null,"lat":51.9777037528895,"lon":5.90533912181854},{"name":"Cafetaria Dolfijn","description":"Fastfood, fries and krokets. Open untill late in the night!","links":["https://www.dolfijnarnhem.nl","https://www.facebook.com/cafetariadolfijn"],"keywords":[],"street":"Spijkerlaan","city":"Arnhem","state":null,"phone":null,"email":null,"fax":null,"lat":51.9831026705075,"lon":5.91857314109802},{"name":"Eetwinkel Stroom","description":null,"links":["http://www.eetwinkelstroom.nl","https://www.facebook.com/EetwinkelStroom"],"keywords":[],"street":"Sonsbeeksingel","city":"Arnhem","state":null,"phone":null,"email":null,"fax":null,"lat":51.9854219567119,"lon":5.91984987258911},{"name":"Hoveniersbedrijf G. van den Brink","description":"Gardener","links":["http://www.inschuytgraaf.nl/schuytgraafgids/hoveniersbedrijf-g-brink/"],"keywords":[],"street":"Lokaalspoor","city":"Arnhem","state":null,"phone":"+31(0)6-42101769","email":null,"fax":null,"lat":51.961063461351,"lon":5.83956599235535},{"name":"Nablus Sweets","description":"Baklava and other delicious sweets","links":["http://www.nablussweets.eu","https://www.facebook.com/people/Nablus-Alsham-Sweets-Arnhem-Beverwijk/100010086588241"],"keywords":[],"street":"Steenstraat","city":"Arnhem","state":null,"phone":null,"email":null,"fax":null,"lat":51.983885690817,"lon":5.91733932495117},{"name":"Kleine Klus Service","description":"Fixes things in your home","links":["https://www.facebook.com/Kleineklusservice"],"keywords":[],"street":"Beeldhouwerstraat","city":"Arnhem","state":null,"phone":null,"email":null,"fax":null,"lat":51.9875825511856,"lon":5.93632400035858},{"name":"Edwin van de Wardt","description":"Piano tuner","links":["https://www.edwinvandewardt.nl"],"keywords":[],"street":"De Wiltstraat","city":"Arnhem","state":null,"phone":null,"email":null,"fax":null,"lat":51.9881078175774,"lon":5.91032266616821},{"name":"Kringloop de Schatkamer","description":"Second hand store","links":["https://www.kringlooparnhem.nl"],"keywords":[],"street":"Dijkstraat","city":"Arnhem","state":null,"phone":null,"email":null,"fax":null,"lat":51.9805222408783,"lon":5.91846585273743},{"name":"De Staat","description":null,"links":["https://www.destaatarnhem.nl","https://www.facebook.com/destaatarnhem"],"keywords":[],"street":"Markt","city":"Arnhem","state":null,"phone":null,"email":null,"fax":null,"lat":51.9785331270878,"lon":5.90988278388977},{"name":"Mej. Janssen","description":null,"links":["http://www.mejjanssenarnhem.nl","https://www.facebook.com/Eetcafe-Mej-Janssen-869653999728605"],"keywords":[],"street":"Duizelsteeg","city":"Arnhem","state":null,"phone":null,"email":null,"fax":null,"lat":51.9820751420771,"lon":5.90430915355682},{"name":"Rawsome","description":null,"links":["https://rawsome.nl","https://www.facebook.com/RawsomeArnhem","https://www.twitter.com/RawsomeArnhem"],"keywords":[],"street":"Brouwersplein","city":"Arnhem","state":null,"phone":null,"email":null,"fax":null,"lat":51.9819991502925,"lon":5.91174960136414},{"name":"Ristretto Café & Bistro","description":"Café de especialidad","links":["https://www.facebook.com/Ristretto-Caf%C3%A9-Bistro-275549546597552/"],"keywords":[],"street":"Paul Harris 790","city":"Chillán","state":"Ñuble","phone":null,"email":null,"fax":null,"lat":-36.5885299621846,"lon":-72.0916682481766},{"name":"Arco Bitcoin ATM","description":"Bitcoin of America is the next big name in crypto ATM business in the country, visit our nearest kiosk today!","links":["https://www.bitcoinofamerica.org/","https://www.facebook.com/bitcoinofamerica/","https://www.twitter.com/BTCofAmerica"],"keywords":[],"street":"251 W. Manchester","city":"Los Angeles","state":"CA","phone":"18885025003","email":"support@bitcoinofamerica.org","fax":null,"lat":33.96046505521451,"lon":-118.27746212482452},{"name":"Arco-South Western Avenue Bitcoin ATM","description":"Get a chance to trade cryptocurrencies with Bitcoin of America; our services are the best in the country.","links":["https://www.bitcoinofamerica.org/","https://www.facebook.com/bitcoinofamerica/","https://www.twitter.com/BTCofAmerica"],"keywords":[],"street":"7600 South Western Avenue","city":"Los Angeles","state":"CA","phone":"18885025003","email":"support@bitcoinofamerica.org","fax":null,"lat":33.970733588055296,"lon":-118.30869376659392},{"name":"Big Easy Canal Street Bitcoin ATM","description":"For seamless and quality crypto trading experience in the US, Bitcoin of America is one of the best platforms. ","links":["https://www.bitcoinofamerica.org/","https://www.facebook.com/bitcoinofamerica/","https://www.twitter.com/BTCofAmerica"],"keywords":[],"street":"2201 Canal Street","city":"New Orleans","state":"LA","phone":"18885025003","email":"support@bitcoinofamerica.org","fax":null,"lat":29.9629006119804,"lon":-90.0824993848801},{"name":"BIG V MARKET Bitcoin ATM","description":"Tired of paying huge crypto trading fees? Visit Bitcoin of America nearest kiosk today and pay negligible fees.","links":["https://www.bitcoinofamerica.org/","https://www.facebook.com/bitcoinofamerica/","https://www.twitter.com/BTCofAmerica"],"keywords":[],"street":"8480 S. Las Vegas Blvd","city":"Las Vegas","state":"NV","phone":"18885025003","email":"support@bitcoinofamerica.org","fax":null,"lat":36.035769609899894,"lon":-115.17186105251311},{"name":"Boost Mobile Bitcoin ATM","description":"Why to pay high transaction fees when Bitcoin of America is available? Start locating Bitcoin of America kiosks now!","links":["https://www.bitcoinofamerica.org/","https://www.facebook.com/bitcoinofamerica/","https://www.twitter.com/BTCofAmerica"],"keywords":[],"street":"18618 Eureka Rd","city":"Indianapolis","state":"IN","phone":"18885025003","email":"support@bitcoinofamerica.org","fax":null,"lat":39.8079055435531,"lon":-86.1729544401169},{"name":"BP Gas Station Bitcoin ATM","description":"Bitcoin of America is one of the best and cheapest crypto trading platform in the country. Now choice is yours!","links":["https://www.bitcoinofamerica.org/","https://www.facebook.com/bitcoinofamerica/","https://www.twitter.com/BTCofAmerica"],"keywords":[],"street":"2242 N 12 Street","city":"Milwaukee","state":"WI","phone":"18885025003","email":"support@bitcoinofamerica.org","fax":null,"lat":43.060198989406686,"lon":-87.92657196521759},{"name":"BP Gas Station Bitcoin ATM","description":"Are you tired of paying high crypto exchange fees? Try Bitcoin of America today and save on every exchange.","links":["https://www.bitcoinofamerica.org/","https://www.facebook.com/bitcoinofamerica/","https://www.twitter.com/BTCofAmerica"],"keywords":[],"street":"9040 W Silver Spring Dr","city":"Milwaukee","state":"WI","phone":"18885025003","email":"support@bitcoinofamerica.org","fax":null,"lat":43.11985518390494,"lon":-88.02542209625244},{"name":"C Stoo Gas Station Bitcoin ATM","description":"Bitcoin of America trading platform has grown to prominence for obvious reasons. Start using it to realize.","links":["https://www.bitcoinofamerica.org/","https://www.facebook.com/bitcoinofamerica/","https://www.twitter.com/BTCofAmerica"],"keywords":[],"street":"8440 Long Beach Blvd","city":"South Gate","state":"CA","phone":"18885025003","email":"support@bitcoinofamerica.org","fax":null,"lat":33.9609144406916,"lon":-118.223302960396},{"name":"Circle V Food Market Bitcoin ATM","description":"New to the world of cryptocurrencies? We at Bitcoin of America are always there to enhance your crypto trading.","links":["https://www.bitcoinofamerica.org/","https://www.facebook.com/bitcoinofamerica/","https://www.twitter.com/BTCofAmerica"],"keywords":[],"street":"2124 W Mound Street","city":"Columbus","state":"OH","phone":"18885025003","email":"support@bitcoinofamerica.org","fax":null,"lat":39.94113737668223,"lon":-83.05436611175537},{"name":"Citgo Fuel Bitcoin ATM","description":"Bitcoin of America welcomes you to the world of digital currencies, use it for all cryptocurrency trading.","links":["https://www.bitcoinofamerica.org/","https://www.facebook.com/bitcoinofamerica/","https://www.twitter.com/BTCofAmerica"],"keywords":[],"street":"12803 Hamilton Avenue","city":"Highland Park","state":"MI","phone":"18885025003","email":"support@bitcoinofamerica.org","fax":null,"lat":42.3965234023507,"lon":-83.10250103473663},{"name":"Citgo Gas Station Bitcoin ATM","description":"Digital currencies are considered to be the future; Bitcoin of America is here to take you to this new world.","links":["https://www.bitcoinofamerica.org/","https://www.facebook.com/bitcoinofamerica/","https://www.twitter.com/BTCofAmerica"],"keywords":[],"street":"5055 English Avenue","city":"Indianapolis","state":"IN","phone":"18885025003","email":"support@bitcoinofamerica.org","fax":null,"lat":39.76014398534192,"lon":-86.08323454856873},{"name":"Citgo Gas Station Pinecrest Bitcoin ATM","description":"We from Bitcoin of America welcome you to the new world of virtual currencies. Come grow with us.","links":["https://www.bitcoinofamerica.org/","https://www.facebook.com/bitcoinofamerica/","https://www.twitter.com/BTCofAmerica"],"keywords":[],"street":"140 Pinecrest Drive","city":"Detroit","state":"MI","phone":"18885025003","email":"support@bitcoinofamerica.org","fax":null,"lat":42.4467007916037,"lon":-83.1468379497528},{"name":"Citgo Gas Station Schoolcraft Bitcoin ATM","description":"Cryptocurrencies bring new possibilities, Bitcoin of America takes you to this world of cryptocurrencies.","links":["https://www.bitcoinofamerica.org/","https://www.facebook.com/bitcoinofamerica/","https://www.twitter.com/BTCofAmerica"],"keywords":[],"street":"19841 Schoolcraft Avenue","city":"Detroit","state":"MI","phone":"18885025003","email":"support@bitcoinofamerica.org","fax":null,"lat":42.38601635274818,"lon":-83.23649883270264},{"name":"Four Digits","description":null,"links":["https://www.fourdigits.nl","https://www.facebook.com/fourdigits","https://www.twitter.com/fourdigits"],"keywords":[],"street":"Jansbinnensingel","city":"Arnhem","state":null,"phone":null,"email":null,"fax":null,"lat":51.983922033199356,"lon":5.910821557044983},{"name":"BitKassa","description":null,"links":["https://www.BitKassa.nl","https://www.facebook.com/BitKassa","https://www.twitter.com/BitKassaNL"],"keywords":[],"street":"Jansbinnensingel","city":"Arnhem","state":null,"phone":null,"email":"coinmap@bitkassa.nl","fax":null,"lat":51.983855956118575,"lon":5.910800099372864},{"name":"BenVista","description":null,"links":["https://www.BenVista.com","https://www.facebook.com/BenVista"],"keywords":[],"street":"Jansbinnensingel","city":"Arnhem","state":null,"phone":null,"email":null,"fax":null,"lat":51.98376675190486,"lon":5.910773277282715},{"name":"Business & Creativity","description":null,"links":["http://www.businesscreativity.nl/"],"keywords":[],"street":"Kersenplukkerserf","city":"Arnhem","state":null,"phone":null,"email":null,"fax":null,"lat":51.9483088837984,"lon":5.85100829601288},{"name":"Café 't Huys","description":null,"links":["https://www.thuys.cafe/","https://www.facebook.com/cafethuysarnhem"],"keywords":[],"street":"Korenmarkt","city":"Arnhem","state":null,"phone":null,"email":null,"fax":null,"lat":51.982659944106,"lon":5.90436816215515},{"name":"Arnhem Insight","description":"pubquizes","links":[],"keywords":[],"street":"Korenmarkt","city":"Arnhem","state":null,"phone":null,"email":null,"fax":null,"lat":51.98276567021156,"lon":5.904368162155151},{"name":"De Vormforensen","description":null,"links":["https://devormforensen.nl/"],"keywords":[],"street":"Transformatorplein","city":"Arnhem","state":null,"phone":null,"email":null,"fax":null,"lat":51.975113098744224,"lon":5.920853018760681},