[{"name":"FiFit - Unleash Liquidity","description":"FiFit offers crypto backed business loans allowing you to borrow against your Bitcoin to unleash your assets liquidity without having to sell your position","links":["https://fifit.com.au/"],"keywords":[],"street":"     ","city":" ","state":"WA","phone":"0756443588","email":"hello@fifit.com.au","fax":null,"lat":-31.9676001588782,"lon":115.865249633789},{"name":"FiFit - Unleash Liquidity","description":"FiFit offers crypto backed business loans allowing you to borrow against your Bitcoin to unleash your assets liquidity without having to sell your position","links":["https://fifit.com.au/"],"keywords":[],"street":" ","city":" ","state":"NT","phone":"0756443588","email":"hello@fifit.com.au","fax":null,"lat":-12.4436170433338,"lon":130.853004455566},{"name":"FiFit - Unleash Liquidity","description":"FiFit offers crypto backed business loans allowing you to borrow against your Bitcoin to unleash your assets liquidity without having to sell your position","links":["https://fifit.com.au/"],"keywords":[],"street":" ","city":" ","state":"QLD","phone":"0756443588","email":"hello@fifit.com.au","fax":null,"lat":-16.9157603791135,"lon":145.77672958374},{"name":"FiFit - Unleash Liquidity","description":"FiFit offers crypto backed business loans allowing you to borrow against your Bitcoin to unleash your assets liquidity without having to sell your position","links":["https://fifit.com.au/"],"keywords":[],"street":" ","city":" ","state":"QLD","phone":"0756443588","email":"hello@fifit.com.au","fax":null,"lat":-19.3796967898512,"lon":146.736917495728},{"name":"FiFit - Unleash Liquidity","description":"FiFit offers crypto backed business loans allowing you to borrow against your Bitcoin to unleash your assets liquidity without having to sell your position","links":["https://fifit.com.au/"],"keywords":[],"street":" ","city":" ","state":"QLD","phone":"0756443588","email":"hello@fifit.com.au","fax":null,"lat":-25.2856794684299,"lon":152.834758758545},{"name":"FiFit - Unleash Liquidity","description":"FiFit offers crypto backed business loans allowing you to borrow against your Bitcoin to unleash your assets liquidity without having to sell your position","links":["https://fifit.com.au/"],"keywords":[],"street":" ","city":" ","state":"QLD","phone":"0756443588","email":"hello@fifit.com.au","fax":null,"lat":-26.5504510495572,"lon":153.119888305664},{"name":"Fifit - Unleash your liquidity","description":"Fifit offers crypto backed business loans allowing you to borrow against your Bitcoin to unleash your assets liquidity without having to sell your position","links":["https://fifit.com.au/"],"keywords":[],"street":"   ","city":"Gold Coast","state":"QLD","phone":"0756443588","email":"hello@fifit.com.au","fax":null,"lat":-28.65129625251268,"lon":153.62309217453003},{"name":"Fifit - Unleash your liquidity","description":"Fifit offers crypto backed business loans allowing you to borrow against your Bitcoin to unleash your assets liquidity without having to sell your position","links":["https://fifit.com.au/"],"keywords":[],"street":" ","city":"Gold Coast","state":"QLD","phone":"0756443588","email":"hello@fifit.com.au","fax":null,"lat":-28.596787305353192,"lon":153.22084665298462},{"name":"FiFit - Unleash Liquidity","description":"FiFit offers crypto backed business loans allowing you to borrow against your Bitcoin to unleash your assets liquidity without having to sell your position","links":["https://fifit.com.au/"],"keywords":[],"street":"  ","city":" ","state":"NSW","phone":"0756443588","email":"hello@fifit.com.au","fax":null,"lat":-29.505354261385,"lon":153.293609619141},{"name":"FiFit - Unleash Liquidity","description":"FiFit offers crypto backed business loans allowing you to borrow against your Bitcoin to unleash your assets liquidity without having to sell your position","links":["https://fifit.com.au/"],"keywords":[],"street":" ","city":" ","state":"NSW","phone":"0756443588","email":"hello@fifit.com.au","fax":null,"lat":-30.9140074342863,"lon":151.296844482422},{"name":"FiFit - Unleash Liquidity","description":"FiFit offers crypto backed business loans allowing you to borrow against your Bitcoin to unleash your assets liquidity without having to sell your position","links":["https://fifit.com.au/"],"keywords":[],"street":" ","city":" ","state":"CAN","phone":"0756443588","email":"hello@fifit.com.au","fax":null,"lat":-35.295232363004,"lon":149.135627746582},{"name":"Bitexcard","description":"We sell utility cards for EUR /CZK without showing ID. With these cards, you can buy crypto & transfer crypto instanlty.","links":["http://bitexfin.com","https://www.facebook.com/bitexfin24","https://www.instagram.com/bitexfin_official"],"keywords":[],"street":"Václavské nám","city":"Praha","state":null,"phone":"+420 733 780 745","email":"support@bitexfin.com","fax":null,"lat":50.08257346194474,"lon":14.426642060279844},{"name":"Nice Shot Art","description":null,"links":["https://www.niceshotart.it","https://www.facebook.com/NiceShotArt","https://www.instagram.com/nice_shot_art"],"keywords":[],"street":"Via E. De Amicis","city":"Urgnano","state":"Bergamo","phone":"345 232 9629","email":"info@niceshotart.it","fax":null,"lat":45.5997241318398,"lon":9.69693660736084},{"name":"Tecnoaguas Argentina","description":"Tratamiento de efluentes - Taller metalmecanico","links":["https://www.facebook.com/TecnoaguasArg"],"keywords":[],"street":"general juan lavalle","city":"Buenos Aires","state":"Villa Martelli","phone":"01166888325","email":"francotecnoaguas@gmail.com","fax":null,"lat":-34.551656731747464,"lon":-58.52123022079468},{"name":"FiFit - Unleash Liquidity","description":"FiFit offers crypto backed business loans allowing you to borrow against your Bitcoin to unleash your assets liquidity without having to sell your position","links":["https://fifit.com.au/"],"keywords":[],"street":" ","city":" ","state":"QLD","phone":"0756443588","email":"hello@fifit.com.au","fax":null,"lat":-27.48025310172048,"lon":153.0272340774536},{"name":"FiFit - Unleash Liquidity","description":"FiFit offers crypto backed business loans allowing you to borrow against your Bitcoin to unleash your assets liquidity without having to sell your position","links":["https://fifit.com.au/"],"keywords":[],"street":" ","city":" ","state":"SA","phone":"0756443588","email":"hello@fifit.com.au","fax":null,"lat":-29.022105884043118,"lon":134.74585533142087},{"name":"FiFit - Unleash Liquidity","description":"FiFit offers crypto backed business loans allowing you to borrow against your Bitcoin to unleash your assets liquidity without having to sell your position","links":["https://fifit.com.au/"],"keywords":[],"street":" ","city":" ","state":"TAS","phone":"0756443588","email":"hello@fifit.com.au","fax":null,"lat":-41.93906275484856,"lon":146.73614501953125},{"name":"MIBO Kvatrić","description":"Očna optika MIBO Lens - poslovnica Kvatrić","links":["http://www.mibo-lens.hr","https://www.facebook.com/mibolens/"],"keywords":[],"street":"Bartola Kašića","city":"Zagreb","state":null,"phone":"099/2709-453","email":"kvatric@mibo-lens.hr","fax":null,"lat":45.81214792597981,"lon":15.995975732803347},{"name":"MIBO Poljanice","description":"Očna optika MIBO Lens - poslovnica Poljanice","links":["http://www.mibo-lens.hr","https://www.facebook.com/mibolens/ twiter"],"keywords":[],"street":"V Poljanice","city":"Zagreb","state":null,"phone":"091/494-9015","email":"poljanice@mibo-lens.hr","fax":null,"lat":45.829105763101325,"lon":16.072086095809937},{"name":"Dinelli & Rossi","description":null,"links":["http://www.dinellierossi.net","https://www.facebook.com/dinellierossi","https://www.instagram.com/dinelli_e_rossi"],"keywords":[],"street":"via sarzanese 536","city":"lucca","state":"lu","phone":"0583511726","email":"info@dinellierossi.net","fax":null,"lat":43.8496317316068,"lon":10.4662799835205},{"name":"Nabo Gass","description":"Painting with glass is characteristic of Nabo’s art. Its technique is unique in modern glass painting. The colored glass is finely pulverized and made into a paste with wallpaper paste. Nabo uses this paste to paint the carrier glass with a brush or spatula. At peak temperatures of up to 840 degrees Celsius, the applied glass painting is fused with the carrier glass in the fusing furnace. The technique described is combined with a photographic sandblasting process. In the glass pictures, three layers are layered one behind the other. Inside is the colored picture, flanked by the sandblasted panes. The subjects of his transparent, multi-layered art result from everyday experience. Imaginative forms taken from nature appear lively and moving and correspond to the translucent landscape behind them. In between there is usually a comment on the events of the time. Partly virtuoso, expressive forms oscillate between representationalism and abstraction. The viewer is encouraged to switch between the glass layers and the one behind. So he can grasp the foreground and the background. The glass works of art by Nabo Gaß offer rich worlds of experience. The core of his very specific contribution to contemporary glass art consists of a plea for differentiated approaches.","links":["https://nabo.de"],"keywords":[],"street":"Rheingaustrasse","city":"Wiesbaden","state":null,"phone":"+491795015999","email":"nabo@nabo.de","fax":null,"lat":50.0410108761006,"lon":8.21578323841095},{"name":"SESAMO","description":null,"links":["http://sesamosite.negocio.site","https://www.facebook.com/SESAMO.POMPEYA","https://www.instagram.com/s.e.s.a.m.o"],"keywords":[],"street":"Avenida Sáenz 972","city":"Buenos Aires","state":"Buenos Aires","phone":"01123207738","email":"theotokospompeya@gmail.com","fax":null,"lat":-34.65155438658896,"lon":-58.41610908508301},{"name":"Kamerové a zebezpečovací systémy Kladno, Praha","description":"Malá specializovaná firma na kamerové systémy a zabezpečovací systémy se zkušeností s instalací malých systémů od jedné kamery po soustavu až 1700+ prvků.\n\nZaměření a konzultace optimálního řešení je zdarma v rámci projektu. Doba realizace záleží na velikosti projektu. Menší systémy je možné realizovat v rámci dní. Projekty je možné v budoucnu upravovat, škálovat a vylepšovat, což je výhodné pro uživatele po finanční stránce.\nPři větších projektech je možné domluvit projekt v rámci celé ČR i v zahraničí.\nPlatby přijímáme v hotovosti či jako jedni z mála v kryptoměnách.\n\nNaše systémy mohou být multifunkční - je libo mít každou kameru zároveň jako přístupový bod na wi-fi? Není problém :-)","links":["https://kamerove-a-zebezpecovaci-systemy.business.site/?utm_source=gmb&utm_medium=referral"],"keywords":[],"street":"Plzeňská","city":"Kladno","state":"N/A","phone":"732172092","email":"tomaskadubec@gmail.com","fax":null,"lat":50.13528668906251,"lon":14.099267721176147},{"name":"Auksomeistrai","description":null,"links":["https://auksomeistrai.lt","https://www.facebook.com/auksomeistrai","https://www.instagram.com/auksomeistrai_lt"],"keywords":[],"street":"Rūdninkų g. ","city":"Vilnius","state":null,"phone":"+370 682 27779","email":"info@auksomeistrai.lt","fax":null,"lat":54.67742897475685,"lon":25.285999774932858},{"name":"Kombuco GmbH","description":"Kombucha Brauerei. Vital, echt und saugut. Aus München für die Welt.\n\n","links":["https://kombuco-fizz.de/","https://www.facebook.com/kombucofizz/","https://www.instagram.com/https://www.instagram.com/kombucofizz/"],"keywords":[],"street":"Unterdorf","city":"Hohenschäftlarn","state":"Bavaria","phone":null,"email":"servus@kombuco.de","fax":null,"lat":47.9917019592121,"lon":11.4547200603413},{"name":"IDM Safety Solutions LTD","description":"Our services include Health & Safety Consultancy and Management Services, Project Management Solutions alongside Domestic, Commercial & Industrial Electrical Services. \n\nWe aim to remove as many barriers as possible and create an accessible user friendly service for all of our clients regardless of location or time of day.\n","links":["http://www.idmsafetysolutions.co.uk","https://www.facebook.com/idmsafetysolutions"],"keywords":[],"street":"Murray Place ","city":"Inverness","state":null,"phone":"01463 213480","email":"info@idmsafetysolutions.co.uk","fax":null,"lat":57.4825488583669,"lon":-4.14401292800903},{"name":"Soporte Informático","description":"\nSoporte Informático\nAceptamos BTC\n","links":[],"keywords":[],"street":"Galilea","city":"Santa cruz","state":null,"phone":"72660586","email":"Lorgioanez@gmail.com","fax":null,"lat":-17.793283417745787,"lon":-63.14517617209277},{"name":"Raw Dino (Raw dog food)","description":"Raw Dino is a Raw Dog food comapny based in Malden.  You will not find us in the stores, but we deliver right to your door anywhere in New England.","links":["http://rawdino.com","https://www.facebook.com/rawdinopets","https://www.instagram.com/rawdinopets"],"keywords":[],"street":"51 Pearl St","city":"Malden","state":"MA","phone":"5084567844","email":"info@rawdino.com","fax":null,"lat":42.415393639205526,"lon":-71.07757329940796},{"name":"FERAL","description":"Indie outdoor store located in NW Denver. They sell new and used outdoor gear. Accepting bitcoin for in-store purchases.","links":["http://liveferal.com","https://www.facebook.com/feraldenver","https://www.twitter.com/feraldenver","https://www.instagram.com/feraldenver"],"keywords":[],"street":"Tennyson St.","city":"Denver","state":"CO","phone":"3039038584","email":"jimmy@liveferal.com","fax":null,"lat":39.771642802313494,"lon":-105.04379459191114},{"name":"AMG SPORT1","description":null,"links":[],"keywords":[],"street":"Nikole Matafare","city":"Zadar","state":"Zadar","phone":"0915648315","email":"amgsport.zadar@gmail.com","fax":null,"lat":44.116484209926526,"lon":15.224910378456114},{"name":"Sten Time Ljubljana, BTC","description":null,"links":["http://www.sten.si"],"keywords":[],"street":"Ameriška ulica 8","city":"Ljubljana","state":null,"phone":"+38615461200","email":"info@sten.si","fax":null,"lat":46.066839,"lon":14.543383},{"name":"Sten Time Ljubljana, Citypark","description":null,"links":["http://www.stentime.si"],"keywords":[],"street":"Šmartinska cesta 152g","city":"Ljubljana","state":null,"phone":"+38615465213","email":"citypark@sten.si","fax":null,"lat":46.066666,"lon":14.54536},{"name":"Sten Time Ljubljana, Interspar Vič","description":null,"links":[""],"keywords":[],"street":"Jamova cesta 105","city":"Ljubljana","state":null,"phone":"+38615461200","email":"info@sten.si","fax":null,"lat":46.039038,"lon":14.477256},{"name":"Sten Time Maribor, Europark","description":null,"links":["http://www.stentime.si"],"keywords":[],"street":"Pobreška cesta 18","city":"Maribor","state":null,"phone":"+38623203943","email":"info@sten.si","fax":null,"lat":46.553781,"lon":15.653292},{"name":"Sten Time Novo mesto, Qlandia","description":null,"links":["http://www.stentime.si"],"keywords":[],"street":"Otoška cesta 5","city":"Novo Mesto","state":null,"phone":"+38673844555","email":"info@sten.si","fax":null,"lat":45.827501,"lon":15.184015},{"name":"Sten Time Ptuj, Qlandia","description":null,"links":["http://www.stentime.si"],"keywords":[],"street":"Ormoška cesta 15","city":"Ptuj","state":null,"phone":"+38627710820","email":"info@sten.si","fax":null,"lat":46.418408,"lon":15.878634},{"name":"Steph & Vlada's Studio","description":null,"links":[""],"keywords":[],"street":"Jolly Harbour Commercial Center","city":"Jolly Harbour","state":null,"phone":"+12687880740","email":"info@stephandvladasstudio.com","fax":null,"lat":17.065526,"lon":-61.883303},{"name":"Stipič Yacht","description":null,"links":[""],"keywords":[],"street":"Zaloška cesta 179","city":"Ljubljana","state":null,"phone":"+38630210333","email":"info@stipic.eu","fax":null,"lat":46.055864,"lon":14.56374},{"name":"STM Transfers","description":null,"links":["http://stm-transfers.com"],"keywords":[],"street":"Koroška ulica 13C","city":"Kranjska Gora","state":null,"phone":"+386040841841","email":"info@stm-transfers.com","fax":null,"lat":46.48672,"lon":13.785095},{"name":"STM Transfers online store","description":null,"links":["https://stm-transfers.com/"],"keywords":[],"street":"Koroška ulica 13C","city":"Kranjska Gora","state":null,"phone":"+386040841841","email":"info@stm-transfers.com","fax":null,"lat":46.486704,"lon":13.785047},{"name":"Stop Caffe & club","description":null,"links":[""],"keywords":[],"street":"Užarska 17","city":"Rijeka","state":null,"phone":"+385953530607","email":"diego.dekanic@rakhiabar.com","fax":null,"lat":45.326833,"lon":14.443892},{"name":"Storica","description":null,"links":[""],"keywords":[],"street":"Via Petrorio 7","city":"Lugano","state":null,"phone":"+41919213111","email":"info@storica.ch","fax":null,"lat":46.005891,"lon":8.951576},{"name":"Strelsko društvo 111","description":null,"links":[""],"keywords":[],"street":"Fužine","city":"Kamnik","state":null,"phone":"+38640246246","email":"info@sd-111.com","fax":null,"lat":46.238685,"lon":14.602969},{"name":"Studio Cult","description":null,"links":["http://www.piercing-cult.si/"],"keywords":[],"street":"Šmartinska cesta 152","city":"Ljubljana","state":null,"phone":"+38631 677 396","email":"info@piercing-cult.si","fax":null,"lat":46.064298,"lon":14.545233},{"name":"Studio INN frizerski salon","description":null,"links":[""],"keywords":[],"street":"Regentova ulica 2A","city":"Ankaran","state":null,"phone":"+38670106474","email":"ingajermann@yahoo.com","fax":null,"lat":45.579607,"lon":13.737096},{"name":"Dentobal","description":"Venta y distribución de insumos dentales a todo Chile.","links":["http://www.Dentobal.cl"],"keywords":[],"street":"Vespucios Sur","city":"Santiago","state":null,"phone":null,"email":"ventas@dentobal.cl","fax":null,"lat":-33.425992835954155,"lon":-70.57767391204834},{"name":"Karier Kamieniarstwo","description":"Wyroby, usługi kamieniarskie - blaty, parapety z granitu, marmuru oraz konglomeratu.","links":["http://karier.pl","https://www.facebook.com/KarierBlatyKamienne","https://www.twitter.com/BlatyGranitowe","https://www.instagram.com/karier.pl"],"keywords":[],"street":"Arkuszowa","city":"Warszawa","state":null,"phone":"+48793721072","email":"biuro@karier.pl","fax":null,"lat":52.2842123528734,"lon":20.897162610663145},{"name":"Executiva Móveis","description":"Loja de Móveis para escritório, as melhores cadeiras com as melhores marcas do mercado disponível para compra com criptomoedas.","links":["https://www.executivamoveis.com.br/","https://www.facebook.com/ExecutivaMoveis96","https://www.instagram.com/moveisexecutiva"],"keywords":[],"street":"Av São Bento","city":"Carazinho","state":"Rio Grande do Sul","phone":"+555496033052","email":"vendasonline@executivamoveis.com.br","fax":null,"lat":-28.2946500013493,"lon":-52.799929231536595},{"name":"Guirnaldadeluces","description":null,"links":["http://www.guirnaldadeluces.com","https://www.facebook.com/Guirnaldadelucesok","https://www.instagram.com/Guirnaldadeluces"],"keywords":[],"street":"Zuviria ","city":"Caballito","state":"Ciudad Autonoma de Buenos Aires","phone":"01125361344","email":"guirnaldadeluces@gmail.com","fax":null,"lat":-34.6287056299866,"lon":-58.4287629808932},{"name":"Lakeway Cosmetic Dentistry","description":"Lakeway Cosmetic Dentistry offers comprehensive general and cosmetic dentistry services in Lakeway, Texas. For over 20 years, we've proudly served patients all across the Greater Austin area. We now accept Bitcoin and Ethereum cryptocurrency as payment for any dental procedure.","links":["https://www.lakewaycosmeticdentistry.com/","https://www.facebook.com/LakewayDentistry","https://www.twitter.com/lakewaycosmetic"],"keywords":[],"street":"401 Ranch Rd 620 S","city":"Lakeway","state":"Texas","phone":"512-402-9399","email":"lakewaycosmeticdentistry@gmail.com","fax":null,"lat":30.361053661173923,"lon":-97.9525624983944},{"name":"DRACO d.o.o.","description":null,"links":["http://www.dracopro.com","https://www.facebook.com/DRACOprocom"],"keywords":[],"street":"Draškovićeva","city":"Solin","state":null,"phone":"021340820","email":"info@dracopro.com","fax":null,"lat":43.53838381002591,"lon":16.466338634490967},{"name":"DoppieCoffee ","description":null,"links":["https://www.facebook.com/DoppieCoffee","https://www.instagram.com/doppiecoffee"],"keywords":[],"street":"Masarykovo náměstí","city":"Pardubice","state":null,"phone":null,"email":"info@kavadokapsy.cz","fax":null,"lat":50.037441475637046,"lon":15.769886970520018},{"name":"Omi-moment j.d.o.o.","description":"Magnetna (PEMF) terapija: originalni pulsirajući elektromagnetni uređaji po najpovoljnijim cijenama\n","links":["https://omi-moment.hr/","https://www.facebook.com/Omi.moment"],"keywords":[],"street":"Ozaljska","city":"Zagreb","state":null,"phone":"+385923590240","email":"info@omi-moment.hr","fax":null,"lat":45.797391603097,"lon":15.9377557039261},{"name":"Aquaproof Daktari Bv","description":"Our mission is making every roof a green roof, as so transforming more carbon dioxide into oxygen!!","links":["http://www.aquaproof.be","https://www.facebook.com/Aquaproof Daktari bvba","https://www.twitter.com/@Aquaproof_Dak","https://www.instagram.com/aquaproofdaktari"],"keywords":[],"street":"Beauduinstraat","city":"Tienen","state":"Vlaams Brabant","phone":"+3216291099","email":"info@aquaproof.be","fax":null,"lat":50.8030666659398,"lon":4.94562864303589},{"name":"Estudio Juridico Klug Badano","description":"KLUG Leonardo German - Abogado M. 6736\nBADANO Ariana Ximena - Abogada M. 6719\nJubilaciones - Sucesiones - Laboral - Criptoactivos","links":[],"keywords":[],"street":"Malvinas","city":"Parana","state":"Entre Rios","phone":"+5493435046029","email":"leoklug@gmail.com","fax":null,"lat":-31.723462862171914,"lon":-60.52737772464753},{"name":"Bitcoin","description":"slm mes amis disponible des recharge bitcoin (btc) en algerie\ndes prix raisonnable .\npour plus de information contacte moi sur mon numéro ou envoye un message.","links":[""],"keywords":[""],"street":"","city":"Alger - Bab El Oued","state":"Algerie","phone":"tel:0557564363","email":"bensalemmoncef704@gmail.com","fax":"","lat":"48.856465","lon":"2.34564"},{"name":"ETH BTC Litecoin Bitcoin LTC Ethereum USDT XRP","description":"ETH BTC Litecoin Bitcoin LTC Ethereum USDT XRP","links":[""],"keywords":[""],"street":"","city":null,"state":null,"phone":"tel:0798720695","email":"","fax":"","lat":"48.81","lon":"3.25"},{"name":"Bitcoin And Usdt","description":"","links":[""],"keywords":[""],"street":"","city":null,"state":null,"phone":"","email":"aziz_abde90@hotmail.com","fax":"","lat":"48.856614","lon":"2.3522219"},{"name":"ASIC Miner BTC Miner Bitcoin","description":"Bonjour,\n\nJe vends un ASIC Miner BTC Miner Love Core aixin A1 25 T avec alimentation SHA-256,\n\nScreenshot pris en mode Efficiency (mode perfomance pour augmenter les TH)\n\nMine du Bitcoin, Bitcoin Cash, Bitcoin SV.\n\nTrès facile à parametrer\n\nCaractéristiques :\n\n-Hashing algorithm: SHA-256\n-Hash Rate: 24th/s±7%\n-Power Consumption: 2100W±7%\n-Voltage : 14.5-15.5V\n-Weight: 4.5 kg\n-Noise: 65dB\n-Environment Temperature: -10c to 45c\n-Power Supply Unit included\n\nRemise en main propre uniquement avec test de bon fonctionnement au besoin.\n\nPlus économique que Antminer S9 S11 S15 S17 T9 + T15 T17 what sminer M3","links":[""],"keywords":[""],"street":"","city":null,"state":null,"phone":"","email":"tel:0779526073","fax":"","lat":"48.8345","lon":"2.4564"},{"name":"Cryptomonnaies Disponible Bitcoin, BTC Litecoin LTC USDT XRP","description":"","links":[""],"keywords":[""],"street":"","city":null,"state":null,"phone":"tel:0541649915","email":"","fax":"","lat":"48.81233","lon":"2.4566"},{"name":"Cryptomonnaies Disponible Bitcoin, BTC Litecoin LTC USDT XRP","description":"Description\nPrix selon le prix du marché\nPour une réponse rapide contactez nous par Viber\nCryptomonnaies disponible :\nBitcoin BTC\nLitecoin LTC\nUSDT\nUSDC\nXRP\n...etc\nPaiements acceptés : CCP, Baridimob, Paysera, PayPal","links":[""],"keywords":[""],"street":"","city":null,"state":null,"phone":"tel:0781522780","email":"dzairdigitalkeys@gmail.com","fax":"","lat":"48.81231","lon":"2.2313244"},{"name":"Vente Bitcoin","description":"","links":[""],"keywords":[""],"street":"","city":"Alger - Bab El Oued","state":"Algerie","phone":"tel:0557564363","email":"bensalemmoncef704@gmail.com","fax":"","lat":"48.84564","lon":"2.3564"},{"name":"BTC ASIC","description":"Description\nBonjour,\n\nJe vends un ASIC Miner BTC Miner Love Core aixin A1 25 T avec alimentation SHA-256,\n\nScreenshot pris en mode Efficiency (mode perfomance pour augmenter les TH)\n\nMine du Bitcoin, Bitcoin Cash, Bitcoin SV.\n\nTrès facile à parametrer\n\nCaractéristiques :\n\n-Hashing algorithm: SHA-256\n-Hash Rate: 24th/s±7%\n-Power Consumption: 2100W±7%\n-Voltage : 14.5-15.5V\n-Weight: 4.5 kg\n-Noise: 65dB\n-Environment Temperature: -10c to 45c\n-Power Supply Unit included\n\nRemise en main propre uniquement avec test de bon fonctionnement au besoin.\n\nPlus économique que Antminer S9 S11 S15 S17 T9 + T15 T17 what sminer M3X","links":[""],"keywords":[""],"street":"","city":"skikda","state":"Algerie","phone":"tel:0773523155","email":"","fax":"","lat":"48.856614","lon":"2.3522219"},{"name":"Innosilicon T2T 30Th/s BTC ASIC Miner Machine 2200W Bitcoin Miner Include PSU","description":"Innosilicon T2T 30Th/s BTC ASIC Miner Machine 2200W Bitcoin Miner Include PSU\n\n⭐ Le mineur de bitcoin T2T 30T est de 30Th/s (± 5%), la consommation d'énergie n'est que de 2200w (+/- 10%).\n⭐Il existe 4 modèles de travail, lorsque vous définissez 1620w, le taux sévère est 24TH, Set 1900w, c'est 26TH, Set 2100w, c'est 29TH, Set 2200w, c'est 30TH.\n⭐Le bloc d'alimentation T2T-30T fait plus de 2000 W, inclus avec le mineur\n\nalgorythme sha 256\nAMD, nvidia RTX 2060, GTX 1650, RX VEGA, RX 5500 XT, RTX 2080 Ti, carte graphique, RTX 3060, RTX 3060 Ti, GTX 1050 Ti 470 480 570 580 6500 6600 6700 6800","links":[""],"keywords":[""],"street":"","city":"skikda","state":"Algerie","phone":"tel:0773523155","email":"","fax":"","lat":"36.465","lon":"3.546654"},{"name":"LEDGER NANO S 16 500 DA Négociable","description":"A vendre portefeuille cryptomonnaie neuf jamais utilisé.\nC’est le modèle ledger nano S, il vous permettra de garder vos bitcoin, etherium etc en toute sécurité","links":[""],"keywords":[""],"street":"","city":"skikda","state":"Algerie","phone":"tel:0656830139 - tel:0675628185","email":"missipsa_15@hotmail.com","fax":"","lat":"36.854654","lon":"3.544465"},{"name":"","description":"Disponible Ledger nano X\nPour stockage des crypto monnaies ( Bitcoin, Ethereum, usdt ... )\nNeuf sous emballage jamais utilisé","links":[""],"keywords":[""],"street":"","city":"Tizi Ouzou - Tizi Ouzou","state":"Algerie","phone":"tel:0556658632","email":"","fax":"","lat":"36.456465","lon":"3.54541"},{"name":"Bubg Fortnite xbox ، psn، play store ","description":"","links":[""],"keywords":[""],"street":"","city":"Tizi Ouzou - Boghni","state":"Algerie","phone":"Tizi Ouzou - Boghni","email":"","fax":"","lat":"35.45453","lon":"4.65"},{"name":"ASIC Miners","description":"Vente des machines de mining:\n\nAntminer S9, T15, S15, T17, S17...\nWhatsminer M3, M10, M20, M21...\nInnosilicon A10, T2T, T3, T3+...\n\nBlockchain, Bitcoin, Cryptomonnaie","links":[""],"keywords":[""],"street":"","city":"Alger - Kouba","state":"Algerie","phone":"","email":"dzmining@outlook.com","fax":"","lat":"36.456465","lon":"3.45664"},{"name":"ÉDITEURS - Gagnez De L'argent En Ligne","description":"Star-clicks est un site PTC qui permet aux annonceurs de placer leurs promotions ou liens sur leurs sites Web et aux membres de gagner de l'argent en cliquant sur ces annonces .Ce site existe depuis 2008 et ne cesse de se construire une réputation extraordinaire basée sur la confiance. Donc il suffit de cliquer sur ces annonces, afin de réaliser des gains importants.\nLe paiement se fait par PayPal, Bitcoin, western union, visa, Master card.\n\nLe lien d'inscription est comme suit :\nbit.ly/32XKdtN\nID: 50725105\n\n\n\nTRAVAILLEZ ET GAGNEZ DE L'ARGENT EN LIGNE\nÊTRE PAYÉ POUR VOTRE TRAVAIL PAR CLIC\nINSCRIPTION GRATUITE ET INSCRIPTION RAPIDE","links":[""],"keywords":[""],"street":"","city":"Alger - Alger Centre","state":"Algerie","phone":"","email":"az.nacim@gmail.com","fax":"","lat":"36.5664","lon":"3.456465"},{"name":"Https://Alexchanger.Com/?Rid=18265","description":"Chers invités!\nNotre site Web est dédié à ceux qui souhaitent échanger leur propre monnaie de manière luxueuse! Nous vous souhaitons la bienvenue sur notre terrain et espérons que notre service en ligne vous offrira l'expérience la plus impressionnante que vous ayez jamais eue. Notre objectif majeur est de fournir à nos clients la méthode la plus sûre et la plus rapide pour effectuer des transactions en utilisant chacun des systèmes de paiement suivants: Webmoney, Perfect Money, Paypal, Bitcoin, Ethereum, Litecoin… etc.","links":["Https://Alexchanger.Com/?Rid=18265\n"],"keywords":[""],"street":"","city":"Alger - Alger Centre","state":"Algerie","phone":"tel:0550061350","email":"","fax":"","lat":"36.56465","lon":"3.56645"},{"name":"Vente Recharge Bitcoin--paypal -payoneer--nettler","description":"","links":[""],"keywords":[""],"street":"","city":"Alger - Alger Centre","state":"Algerie","phone":"tel:0557564363","email":"","fax":"","lat":"36.45465","lon":"3.864"},{"name":"Création De Sites Web Et Logiciels 40 000 DA Négociable","description":"Bonjour nous offrent les services de Developements Web Avec Plusieurs Technologies Avancee (Php : Laravel , Wordpress , Drupal , nodeJS , DB: MySql , MangoDB , et les boutiques online avec L'integration de  tous les moyens de payement : Paypal , Stripe , Cards , Bitcoin ...\n-Creation spécial a la demande et commande\n-Sites Web Multilangues\n- !!! Development Avancee en respectant tous les mesures international , avec la protection contre les Attaques + Securite et la rapidité et la stabilité de toutes les services qui nous offrent","links":[""],"keywords":[""],"street":"","city":"Mdea","state":"Algerie","phone":"tel:0672312738","email":"","fax":"","lat":"36.456465","lon":"3.45465"},{"name":"Coinhouse","description":"","links":[""],"keywords":[""],"street":"","city":"","state":"","phone":"","email":"","fax":"","lat":"48.856614","lon":"2.3522219"},{"name":"Coinhouse","description":"","links":[""],"keywords":[""],"street":"","city":"","state":"","phone":"","email":"","fax":"","lat":"48.856614","lon":"2.3522219"}]